[{"resort_name":"49(degrees) North, WA","state":"Washington","summit":5774.0,"base":3923.0,"vertical":1851.0,"lifts":6.0,"runs":68.0,"acres":2325,"green_percent":0.3,"green_acres":697.5,"blue_percent":0.4,"blue_acres":930.0,"black_percent":0.3,"black_acres":697.5,"lat":49.0,"lon":-115.84,"size_category":"Very Large","avg_snowfall":null},{"resort_name":"Afton Alps, MN","state":"Minnesota","summit":700.0,"base":350.0,"vertical":350.0,"lifts":21.0,"runs":48.0,"acres":300,"green_percent":0.2,"green_acres":60.0,"blue_percent":0.6,"blue_acres":180.0,"black_percent":0.2,"black_acres":60.0,"lat":44.85,"lon":-92.79,"size_category":"Large","avg_snowfall":null},{"resort_name":"Alpine Meadows, CA","state":"California","summit":8673.0,"base":6385.0,"vertical":2288.0,"lifts":13.0,"runs":100.0,"acres":2400,"green_percent":0.25,"green_acres":600.0,"blue_percent":0.4,"blue_acres":960.0,"black_percent":0.35,"black_acres":840.0,"lat":39.17,"lon":-120.22,"size_category":"Very Large","avg_snowfall":null},{"resort_name":"Alpine Mountain, PA","state":"Pennsylvania","summit":1150.0,"base":600.0,"vertical":500.0,"lifts":3.0,"runs":21.0,"acres":120,"green_percent":0.17,"green_acres":20.4,"blue_percent":0.55,"blue_acres":66.0,"black_percent":0.28,"black_acres":33.6,"lat":40.08,"lon":-76.9,"size_category":"Medium","avg_snowfall":null},{"resort_name":"Alpine Valley, MI","state":"Michigan","summit":1210.0,"base":910.0,"vertical":300.0,"lifts":14.0,"runs":25.0,"acres":118,"green_percent":0.39,"green_acres":46.02,"blue_percent":0.26,"blue_acres":30.68,"black_percent":0.35,"black_acres":41.3,"lat":44.96,"lon":-84.87,"size_category":"Medium","avg_snowfall":null},{"resort_name":"Alpine Valley, OH","state":"Ohio","summit":1500.0,"base":1260.0,"vertical":230.0,"lifts":6.0,"runs":11.0,"acres":72,"green_percent":0.33,"green_acres":23.76,"blue_percent":0.34,"blue_acres":24.48,"black_percent":0.33,"black_acres":23.76,"lat":40.31,"lon":-83.68,"size_category":"Small","avg_snowfall":null},{"resort_name":"Alpine Valley, WI","state":"Wisconsin","summit":null,"base":null,"vertical":388.0,"lifts":16.0,"runs":20.0,"acres":90,"green_percent":0.4,"green_acres":36.0,"blue_percent":0.4,"blue_acres":36.0,"black_percent":0.2,"black_acres":18.0,"lat":42.45,"lon":-88.25,"size_category":"Medium","avg_snowfall":null},{"resort_name":"Alta, UT","state":"Utah","summit":10550.0,"base":8530.0,"vertical":2020.0,"lifts":11.0,"runs":116.0,"acres":2200,"green_percent":0.25,"green_acres":550.0,"blue_percent":0.4,"blue_acres":880.0,"black_percent":0.35,"black_acres":770.0,"lat":40.6,"lon":-111.64,"size_category":"Very Large","avg_snowfall":null},{"resort_name":"Alyeska, AK","state":"Alaska","summit":3939.0,"base":250.0,"vertical":2500.0,"lifts":9.0,"runs":73.0,"acres":1500,"green_percent":0.11,"green_acres":165.0,"blue_percent":0.52,"blue_acres":780.0,"black_percent":0.37,"black_acres":555.0,"lat":60.97,"lon":-149.11,"size_category":"Very Large","avg_snowfall":null},{"resort_name":"Andes Tower, MN","state":"Minnesota","summit":null,"base":null,"vertical":275.0,"lifts":4.0,"runs":16.0,"acres":45,"green_percent":0.35,"green_acres":15.75,"blue_percent":0.35,"blue_acres":15.75,"black_percent":0.3,"black_acres":13.5,"lat":46.73,"lon":-94.69,"size_category":"Small","avg_snowfall":null},{"resort_name":"Angel Fire, NM","state":"New Mexico","summit":10677.0,"base":8600.0,"vertical":2077.0,"lifts":7.0,"runs":77.0,"acres":560,"green_percent":0.26,"green_acres":145.6,"blue_percent":0.5,"blue_acres":280.0,"black_percent":0.24,"black_acres":134.4,"lat":36.39,"lon":-105.29,"size_category":"Large","avg_snowfall":null},{"resort_name":"Anthony Lakes, OR","state":"Oregon","summit":8000.0,"base":7100.0,"vertical":900.0,"lifts":3.0,"runs":21.0,"acres":1100,"green_percent":0.2,"green_acres":220.0,"blue_percent":0.38,"blue_acres":418.0,"black_percent":0.42,"black_acres":462.0,"lat":44.97,"lon":-118.23,"size_category":"Very Large","avg_snowfall":null},{"resort_name":"Appalachian, NC","state":"North Carolina","summit":4000.0,"base":3635.0,"vertical":365.0,"lifts":6.0,"runs":12.0,"acres":22,"green_percent":0.18,"green_acres":3.96,"blue_percent":0.55,"blue_acres":12.1,"black_percent":0.27,"black_acres":5.94,"lat":41.29,"lon":-76.57,"size_category":"Small","avg_snowfall":null},{"resort_name":"Apple Mountain, MI","state":"Michigan","summit":620.0,"base":600.0,"vertical":220.0,"lifts":5.0,"runs":12.0,"acres":40,"green_percent":0.4,"green_acres":16.0,"blue_percent":0.4,"blue_acres":16.0,"black_percent":0.2,"black_acres":8.0,"lat":43.46,"lon":-84.1,"size_category":"Small","avg_snowfall":null},{"resort_name":"Arapahoe Basin, CO","state":"Colorado","summit":13050.0,"base":10780.0,"vertical":2270.0,"lifts":7.0,"runs":105.0,"acres":900,"green_percent":0.1,"green_acres":90.0,"blue_percent":0.3,"blue_acres":270.0,"black_percent":0.6,"black_acres":540.0,"lat":39.72,"lon":-104.79,"size_category":"Very Large","avg_snowfall":null},{"resort_name":"Arctic Valley, AK","state":"Alaska","summit":3900.0,"base":2500.0,"vertical":1400.0,"lifts":4.0,"runs":25.0,"acres":320,"green_percent":0.2,"green_acres":64.0,"blue_percent":0.5,"blue_acres":160.0,"black_percent":0.3,"black_acres":96.0,"lat":61.24,"lon":-149.61,"size_category":"Large","avg_snowfall":null},{"resort_name":"Arizona Snowball, AZ","state":"Arizona ","summit":11500.0,"base":9200.0,"vertical":2300.0,"lifts":6.0,"runs":40.0,"acres":777,"green_percent":0.37,"green_acres":287.49,"blue_percent":0.42,"blue_acres":326.34,"black_percent":0.21,"black_acres":163.17,"lat":35.32782,"lon":-111.69517,"size_category":"Very Large","avg_snowfall":null},{"resort_name":"Aspen Highlands, CO","state":"Colorado","summit":11675.0,"base":8040.0,"vertical":3635.0,"lifts":5.0,"runs":118.0,"acres":1028,"green_percent":0.18,"green_acres":185.04,"blue_percent":0.3,"blue_acres":308.4,"black_percent":0.52,"black_acres":534.56,"lat":39.12,"lon":-106.85,"size_category":"Very Large","avg_snowfall":null},{"resort_name":"Aspen Mt, CO","state":"Colorado","summit":11212.0,"base":7945.0,"vertical":3267.0,"lifts":8.0,"runs":76.0,"acres":673,"green_percent":0.0,"green_acres":0.0,"blue_percent":0.48,"blue_acres":323.04,"black_percent":0.52,"black_acres":349.96,"lat":39.17,"lon":-106.82,"size_category":"Very Large","avg_snowfall":null},{"resort_name":"Attitash, NH","state":"New Hampshire ","summit":2350.0,"base":600.0,"vertical":1750.0,"lifts":11.0,"runs":76.0,"acres":310,"green_percent":0.2,"green_acres":62.0,"blue_percent":0.47,"blue_acres":145.7,"black_percent":0.33,"black_acres":102.3,"lat":44.09,"lon":-71.21,"size_category":"Large","avg_snowfall":null},{"resort_name":"Badger Mountain, WA","state":"Washington","summit":3800.0,"base":3000.0,"vertical":800.0,"lifts":3.0,"runs":5.0,"acres":20,"green_percent":0.33,"green_acres":6.6,"blue_percent":0.34,"blue_acres":6.8,"black_percent":0.33,"black_acres":6.6,"lat":47.59,"lon":-120.19,"size_category":"Small","avg_snowfall":null},{"resort_name":"Bald Mountain, ID","state":"Idaho","summit":4800.0,"base":4000.0,"vertical":684.0,"lifts":2.0,"runs":null,"acres":140,"green_percent":0.25,"green_acres":35.0,"blue_percent":0.4,"blue_acres":56.0,"black_percent":0.35,"black_acres":49.0,"lat":44.37,"lon":-114.35,"size_category":"Medium","avg_snowfall":null},{"resort_name":"Bear Creek Mountain, PA","state":"Pennsylvania","summit":1110.0,"base":600.0,"vertical":510.0,"lifts":6.0,"runs":21.0,"acres":86,"green_percent":0.3,"green_acres":25.8,"blue_percent":0.4,"blue_acres":34.4,"black_percent":0.3,"black_acres":25.8,"lat":41.21,"lon":-75.68,"size_category":"Medium","avg_snowfall":null},{"resort_name":"Bear Mountain, CA","state":"California","summit":8805.0,"base":7140.0,"vertical":1665.0,"lifts":12.0,"runs":null,"acres":748,"green_percent":0.3,"green_acres":224.4,"blue_percent":0.4,"blue_acres":299.2,"black_percent":0.3,"black_acres":224.4,"lat":37.1,"lon":-119.1,"size_category":"Very Large","avg_snowfall":null},{"resort_name":"Bear Paw, MT","state":"Montana","summit":5280.0,"base":4200.0,"vertical":900.0,"lifts":1.0,"runs":11.0,"acres":80,"green_percent":0.25,"green_acres":20.0,"blue_percent":0.25,"blue_acres":20.0,"black_percent":0.5,"black_acres":40.0,"lat":41.78,"lon":-123.66,"size_category":"Medium","avg_snowfall":null},{"resort_name":"Bear Valley Mt, CA","state":"California","summit":8500.0,"base":6600.0,"vertical":1900.0,"lifts":9.0,"runs":75.0,"acres":1680,"green_percent":0.25,"green_acres":420.0,"blue_percent":0.4,"blue_acres":672.0,"black_percent":0.35,"black_acres":588.0,"lat":39.2,"lon":-122.44,"size_category":"Very Large","avg_snowfall":null},{"resort_name":"Bear's Den, ND","state":"North Dakota","summit":1190.0,"base":900.0,"vertical":290.0,"lifts":3.0,"runs":8.0,"acres":30,"green_percent":0.25,"green_acres":7.5,"blue_percent":0.5,"blue_acres":15.0,"black_percent":0.25,"black_acres":7.5,"lat":46.53,"lon":-97.95,"size_category":"Small","avg_snowfall":null},{"resort_name":"Beaver Creek, CO","state":"Colorado","summit":11440.0,"base":8100.0,"vertical":3340.0,"lifts":25.0,"runs":149.0,"acres":1832,"green_percent":0.19,"green_acres":348.08,"blue_percent":0.64,"blue_acres":1172.48,"black_percent":0.17,"black_acres":311.44,"lat":39.61,"lon":-106.53,"size_category":"Very Large","avg_snowfall":null},{"resort_name":"Beaver Mt, UT","state":"Utah","summit":8800.0,"base":7100.0,"vertical":1700.0,"lifts":5.0,"runs":47.0,"acres":828,"green_percent":0.25,"green_acres":207.0,"blue_percent":0.4,"blue_acres":331.2,"black_percent":0.35,"black_acres":289.8,"lat":41.97,"lon":-111.57,"size_category":"Very Large","avg_snowfall":null},{"resort_name":"Beech Mountain, NC","state":"North Carolina","summit":5505.0,"base":4675.0,"vertical":830.0,"lifts":10.0,"runs":15.0,"acres":95,"green_percent":0.3,"green_acres":28.5,"blue_percent":0.4,"blue_acres":38.0,"black_percent":0.3,"black_acres":28.5,"lat":36.22,"lon":-81.88,"size_category":"Medium","avg_snowfall":null},{"resort_name":"Belleayre, NY","state":"New York","summit":3429.0,"base":2025.0,"vertical":1404.0,"lifts":8.0,"runs":55.0,"acres":171,"green_percent":0.22,"green_acres":37.62,"blue_percent":0.58,"blue_acres":99.18,"black_percent":0.2,"black_acres":34.2,"lat":40.86,"lon":-73.4,"size_category":"Large","avg_snowfall":null},{"resort_name":"Berkshire East, MA","state":"Massachusetts ","summit":1840.0,"base":660.0,"vertical":1180.0,"lifts":6.0,"runs":45.0,"acres":400,"green_percent":0.3,"green_acres":120.0,"blue_percent":0.35,"blue_acres":140.0,"black_percent":0.35,"black_acres":140.0,"lat":42.32,"lon":-73.17,"size_category":"Large","avg_snowfall":null},{"resort_name":"Big Boulder, PA","state":"Pennsylvania","summit":2175.0,"base":1700.0,"vertical":475.0,"lifts":8.0,"runs":15.0,"acres":55,"green_percent":0.4,"green_acres":22.0,"blue_percent":0.35,"blue_acres":19.25,"black_percent":0.25,"black_acres":13.75,"lat":41.05,"lon":-75.59,"size_category":"Small","avg_snowfall":null},{"resort_name":"Big Powderhorn, MI","state":"Michigan","summit":600.0,"base":1200.0,"vertical":600.0,"lifts":10.0,"runs":33.0,"acres":253,"green_percent":0.35,"green_acres":88.55,"blue_percent":0.35,"blue_acres":88.55,"black_percent":0.3,"black_acres":75.9,"lat":46.49,"lon":-90.1,"size_category":"Large","avg_snowfall":null},{"resort_name":"Big Sky, MT","state":"Montana","summit":11166.0,"base":6800.0,"vertical":4350.0,"lifts":34.0,"runs":306.0,"acres":5800,"green_percent":0.15,"green_acres":870.0,"blue_percent":0.25,"blue_acres":1450.0,"black_percent":0.6,"black_acres":3480.0,"lat":45.29,"lon":-111.38,"size_category":"Very Large","avg_snowfall":null},{"resort_name":"Bigrock, ME","state":"Maine","summit":1641.0,"base":661.0,"vertical":980.0,"lifts":5.0,"runs":28.0,"acres":60,"green_percent":0.11,"green_acres":6.6,"blue_percent":0.75,"blue_acres":45.0,"black_percent":0.14,"black_acres":8.4,"lat":44.6,"lon":-67.94,"size_category":"Small","avg_snowfall":null},{"resort_name":"Bittersweet, MI","state":"Michigan","summit":null,"base":null,"vertical":350.0,"lifts":12.0,"runs":20.0,"acres":110,"green_percent":0.3,"green_acres":33.0,"blue_percent":0.6,"blue_acres":66.0,"black_percent":0.1,"black_acres":11.0,"lat":43.38,"lon":-85.78,"size_category":"Medium","avg_snowfall":null},{"resort_name":"Black Mountain, ME","state":"Maine","summit":2460.0,"base":1080.0,"vertical":1380.0,"lifts":3.0,"runs":35.0,"acres":48,"green_percent":null,"green_acres":0.0,"blue_percent":null,"blue_acres":0.0,"black_percent":null,"black_acres":0.0,"lat":45.18,"lon":-70.67,"size_category":"Small","avg_snowfall":null},{"resort_name":"Black Mountain, NH","state":"New Hampshire ","summit":3303.0,"base":1250.0,"vertical":1100.0,"lifts":4.0,"runs":40.0,"acres":143,"green_percent":0.33,"green_acres":47.19,"blue_percent":0.35,"blue_acres":50.05,"black_percent":0.32,"black_acres":45.76,"lat":44.22,"lon":-71.16,"size_category":"Medium","avg_snowfall":null},{"resort_name":"Blackjack, MI","state":"Michigan","summit":1650.0,"base":1185.0,"vertical":465.0,"lifts":6.0,"runs":26.0,"acres":126,"green_percent":0.2,"green_acres":25.2,"blue_percent":0.4,"blue_acres":50.4,"black_percent":0.4,"black_acres":50.4,"lat":46.48,"lon":-89.99,"size_category":"Medium","avg_snowfall":null},{"resort_name":"Blacktail Mountain, MT","state":"Montana","summit":6780.0,"base":5340.0,"vertical":1440.0,"lifts":4.0,"runs":25.0,"acres":2500,"green_percent":0.15,"green_acres":375.0,"blue_percent":0.7,"blue_acres":1750.0,"black_percent":0.15,"black_acres":375.0,"lat":48.0,"lon":-114.36,"size_category":"Very Large","avg_snowfall":null},{"resort_name":"Blanford, MA","state":"Massachusetts ","summit":1685.0,"base":1220.0,"vertical":465.0,"lifts":5.0,"runs":22.0,"acres":158,"green_percent":0.4,"green_acres":63.2,"blue_percent":0.5,"blue_acres":79.0,"black_percent":0.1,"black_acres":15.8,"lat":42.18,"lon":-72.93,"size_category":"Medium","avg_snowfall":null},{"resort_name":"Blue Hills, MA ","state":"Massachusetts ","summit":635.0,"base":326.0,"vertical":309.0,"lifts":4.0,"runs":12.0,"acres":60,"green_percent":0.25,"green_acres":15.0,"blue_percent":0.5,"blue_acres":30.0,"black_percent":0.25,"black_acres":15.0,"lat":41.81,"lon":-72.7,"size_category":"Small","avg_snowfall":null},{"resort_name":"Blue Knob, PA","state":"Pennsylvania","summit":3172.0,"base":2074.0,"vertical":1072.0,"lifts":5.0,"runs":34.0,"acres":100,"green_percent":0.2,"green_acres":20.0,"blue_percent":0.35,"blue_acres":35.0,"black_percent":0.45,"black_acres":45.0,"lat":40.28,"lon":-78.55,"size_category":"Medium","avg_snowfall":null},{"resort_name":"Blue Mountain, PA","state":"Pennsylvania","summit":1600.0,"base":460.0,"vertical":1082.0,"lifts":13.0,"runs":39.0,"acres":164,"green_percent":0.41,"green_acres":67.24,"blue_percent":0.13,"blue_acres":21.32,"black_percent":0.46,"black_acres":75.44,"lat":40.19,"lon":-77.61,"size_category":"Medium","avg_snowfall":null},{"resort_name":"Bogus Basin, ID","state":"Idaho","summit":7582.0,"base":5800.0,"vertical":1800.0,"lifts":8.0,"runs":66.0,"acres":2600,"green_percent":0.22,"green_acres":572.0,"blue_percent":0.45,"blue_acres":1170.0,"black_percent":0.33,"black_acres":858.0,"lat":43.76,"lon":-116.1,"size_category":"Very Large","avg_snowfall":null},{"resort_name":"Bolton Valley, VT","state":"Vermont","summit":3150.0,"base":2100.0,"vertical":1704.0,"lifts":6.0,"runs":71.0,"acres":165,"green_percent":0.32,"green_acres":52.8,"blue_percent":0.36,"blue_acres":59.4,"black_percent":0.32,"black_acres":52.8,"lat":44.42,"lon":-72.85,"size_category":"Medium","avg_snowfall":null},{"resort_name":"Boreal, CA","state":"California","summit":7700.0,"base":7200.0,"vertical":500.0,"lifts":6.0,"runs":41.0,"acres":480,"green_percent":0.3,"green_acres":144.0,"blue_percent":0.55,"blue_acres":264.0,"black_percent":0.15,"black_acres":72.0,"lat":39.33,"lon":-120.35,"size_category":"Large","avg_snowfall":null},{"resort_name":"Boston Mills\/Brandywine, OH","state":"Ohio","summit":660.0,"base":420.0,"vertical":264.0,"lifts":16.0,"runs":17.0,"acres":88,"green_percent":0.27,"green_acres":23.76,"blue_percent":0.27,"blue_acres":23.76,"black_percent":0.46,"black_acres":40.48,"lat":40.07,"lon":-82.95,"size_category":"Medium","avg_snowfall":null},{"resort_name":"Bottineau Winter Park, ND","state":"North Dakota","summit":2080.0,"base":1880.0,"vertical":250.0,"lifts":5.0,"runs":9.0,"acres":40,"green_percent":0.4,"green_acres":16.0,"blue_percent":0.4,"blue_acres":16.0,"black_percent":0.2,"black_acres":8.0,"lat":48.83,"lon":-100.45,"size_category":"Small","avg_snowfall":null},{"resort_name":"Bousquet, MA ","state":"Massachusetts ","summit":1875.0,"base":1125.0,"vertical":750.0,"lifts":5.0,"runs":23.0,"acres":200,"green_percent":0.34,"green_acres":68.0,"blue_percent":0.33,"blue_acres":66.0,"black_percent":0.33,"black_acres":66.0,"lat":42.4,"lon":-71.39,"size_category":"Large","avg_snowfall":null},{"resort_name":"Boyce Park, PA","state":"Pennsylvania","summit":1232.0,"base":1072.0,"vertical":160.0,"lifts":3.0,"runs":4.0,"acres":25,"green_percent":0.75,"green_acres":18.75,"blue_percent":0.25,"blue_acres":6.25,"black_percent":null,"black_acres":0.0,"lat":40.46,"lon":-79.75,"size_category":"Small","avg_snowfall":null},{"resort_name":"Boyne Highlands, MI","state":"Michigan","summit":1290.0,"base":745.0,"vertical":552.0,"lifts":8.0,"runs":55.0,"acres":435,"green_percent":0.37,"green_acres":160.95,"blue_percent":0.29,"blue_acres":126.15,"black_percent":0.34,"black_acres":147.9,"lat":45.47,"lon":-84.94,"size_category":"Large","avg_snowfall":null},{"resort_name":"Boyne Mountain, MI","state":"Michigan","summit":1120.0,"base":620.0,"vertical":500.0,"lifts":10.0,"runs":60.0,"acres":415,"green_percent":0.29,"green_acres":120.35,"blue_percent":0.41,"blue_acres":170.15,"black_percent":0.3,"black_acres":124.5,"lat":45.17,"lon":-84.94,"size_category":"Large","avg_snowfall":null},{"resort_name":"Brantling, NY","state":"New York","summit":850.0,"base":600.0,"vertical":250.0,"lifts":6.0,"runs":8.0,"acres":36,"green_percent":0.3,"green_acres":10.8,"blue_percent":0.4,"blue_acres":14.4,"black_percent":0.3,"black_acres":10.8,"lat":43.16,"lon":-77.06,"size_category":"Small","avg_snowfall":null},{"resort_name":"Breckenridge, CO","state":"Colorado","summit":12998.0,"base":9600.0,"vertical":3398.0,"lifts":31.0,"runs":155.0,"acres":2358,"green_percent":0.14,"green_acres":330.12,"blue_percent":0.31,"blue_acres":730.98,"black_percent":0.55,"black_acres":1296.9,"lat":39.49,"lon":-106.03,"size_category":"Very Large","avg_snowfall":null},{"resort_name":"Bretton Woods, NH","state":"New Hampshire ","summit":3100.0,"base":1600.0,"vertical":1500.0,"lifts":10.0,"runs":102.0,"acres":464,"green_percent":0.25,"green_acres":116.0,"blue_percent":0.29,"blue_acres":134.56,"black_percent":0.46,"black_acres":213.44,"lat":44.26,"lon":-71.45,"size_category":"Large","avg_snowfall":null},{"resort_name":"Brian Head, UT","state":"Utah","summit":10929.0,"base":9600.0,"vertical":1329.0,"lifts":9.0,"runs":71.0,"acres":650,"green_percent":0.3,"green_acres":195.0,"blue_percent":0.35,"blue_acres":227.5,"black_percent":0.35,"black_acres":227.5,"lat":37.69,"lon":-112.86,"size_category":"Large","avg_snowfall":null},{"resort_name":"Bridger Bowl, MT","state":"Montana","summit":8800.0,"base":6100.0,"vertical":2700.0,"lifts":8.0,"runs":71.0,"acres":2000,"green_percent":0.2,"green_acres":400.0,"blue_percent":0.3,"blue_acres":600.0,"black_percent":0.5,"black_acres":1000.0,"lat":45.83,"lon":-110.89,"size_category":"Very Large","avg_snowfall":null},{"resort_name":"Brighton,  UT","state":"Utah","summit":10500.0,"base":8755.0,"vertical":1745.0,"lifts":5.0,"runs":66.0,"acres":1050,"green_percent":0.21,"green_acres":220.5,"blue_percent":0.4,"blue_acres":420.0,"black_percent":0.39,"black_acres":409.5,"lat":40.6,"lon":-111.58,"size_category":"Very Large","avg_snowfall":null},{"resort_name":"Bristol Mountain, NY","state":"New York","summit":2200.0,"base":1000.0,"vertical":1200.0,"lifts":6.0,"runs":34.0,"acres":138,"green_percent":0.32,"green_acres":44.16,"blue_percent":0.5,"blue_acres":69.0,"black_percent":0.18,"black_acres":24.84,"lat":44.24,"lon":-73.1,"size_category":"Medium","avg_snowfall":null},{"resort_name":"Bromley Mountain, VT ","state":"Vermont","summit":3284.0,"base":1950.0,"vertical":1334.0,"lifts":10.0,"runs":46.0,"acres":300,"green_percent":0.35,"green_acres":105.0,"blue_percent":0.34,"blue_acres":102.0,"black_percent":0.31,"black_acres":93.0,"lat":43.23,"lon":-72.94,"size_category":"Large","avg_snowfall":null},{"resort_name":"Brundage, ID","state":"Idaho","summit":7640.0,"base":5840.0,"vertical":1800.0,"lifts":5.0,"runs":46.0,"acres":1500,"green_percent":0.3,"green_acres":450.0,"blue_percent":0.5,"blue_acres":750.0,"black_percent":0.2,"black_acres":300.0,"lat":45.05,"lon":-116.12,"size_category":"Very Large","avg_snowfall":null},{"resort_name":"Bryce, VA","state":"Virginia","summit":1750.0,"base":1250.0,"vertical":500.0,"lifts":7.0,"runs":8.0,"acres":25,"green_percent":0.34,"green_acres":8.5,"blue_percent":0.33,"blue_acres":8.25,"black_percent":0.33,"black_acres":8.25,"lat":38.75,"lon":-78.65,"size_category":"Small","avg_snowfall":null},{"resort_name":"Buck Hill, MN","state":"Minnesota","summit":null,"base":null,"vertical":310.0,"lifts":9.0,"runs":16.0,"acres":45,"green_percent":0.4,"green_acres":18.0,"blue_percent":0.4,"blue_acres":18.0,"black_percent":0.2,"black_acres":9.0,"lat":44.72,"lon":-93.28,"size_category":"Small","avg_snowfall":null},{"resort_name":"Buena Vista, MN","state":"Minnesota","summit":1510.0,"base":1280.0,"vertical":230.0,"lifts":5.0,"runs":16.0,"acres":30,"green_percent":0.2,"green_acres":6.0,"blue_percent":0.55,"blue_acres":16.5,"black_percent":0.25,"black_acres":7.5,"lat":47.57,"lon":-94.72,"size_category":"Small","avg_snowfall":null},{"resort_name":"Burke Mountain, VT","state":"Vermont","summit":3267.0,"base":1267.0,"vertical":2011.0,"lifts":6.0,"runs":55.0,"acres":270,"green_percent":0.11,"green_acres":29.7,"blue_percent":0.47,"blue_acres":126.9,"black_percent":0.42,"black_acres":113.4,"lat":44.57,"lon":-71.9,"size_category":"Large","avg_snowfall":null},{"resort_name":"Buttermilk, CO","state":"Colorado","summit":9900.0,"base":7870.0,"vertical":2030.0,"lifts":9.0,"runs":44.0,"acres":470,"green_percent":0.35,"green_acres":164.5,"blue_percent":0.39,"blue_acres":183.3,"black_percent":0.26,"black_acres":122.2,"lat":39.24,"lon":-104.91,"size_category":"Large","avg_snowfall":null},{"resort_name":"Caberfae Peaks, MI","state":"Michigan","summit":1545.0,"base":1060.0,"vertical":485.0,"lifts":6.0,"runs":34.0,"acres":200,"green_percent":0.35,"green_acres":70.0,"blue_percent":0.33,"blue_acres":66.0,"black_percent":0.32,"black_acres":64.0,"lat":44.32,"lon":-85.6,"size_category":"Large","avg_snowfall":null},{"resort_name":"Camden Snow Bowl, ME","state":"Maine","summit":1093.0,"base":150.0,"vertical":943.0,"lifts":4.0,"runs":11.0,"acres":80,"green_percent":0.2,"green_acres":16.0,"blue_percent":0.6,"blue_acres":48.0,"black_percent":0.2,"black_acres":16.0,"lat":44.21,"lon":-69.15,"size_category":"Medium","avg_snowfall":null},{"resort_name":"Camelback Mountain, PA","state":"Pennsylvania","summit":2050.0,"base":1239.0,"vertical":800.0,"lifts":15.0,"runs":34.0,"acres":160,"green_percent":0.39,"green_acres":62.4,"blue_percent":0.26,"blue_acres":41.6,"black_percent":0.35,"black_acres":56.0,"lat":41.05,"lon":-75.35,"size_category":"Medium","avg_snowfall":null},{"resort_name":"Camp 10, WI","state":"Wisconsin","summit":null,"base":null,"vertical":240.0,"lifts":4.0,"runs":14.0,"acres":120,"green_percent":0.4,"green_acres":48.0,"blue_percent":0.4,"blue_acres":48.0,"black_percent":0.2,"black_acres":24.0,"lat":45.4,"lon":-88.22,"size_category":"Medium","avg_snowfall":null},{"resort_name":"Campgaw Mountain, NJ","state":"New Jersey","summit":720.0,"base":450.0,"vertical":270.0,"lifts":6.0,"runs":5.0,"acres":18,"green_percent":0.7,"green_acres":12.6,"blue_percent":0.2,"blue_acres":3.6,"black_percent":0.1,"black_acres":1.8,"lat":41.05,"lon":-74.21,"size_category":"Small","avg_snowfall":null},{"resort_name":"Canaan Valley, WV","state":"West Virginia ","summit":4280.0,"base":3430.0,"vertical":850.0,"lifts":5.0,"runs":42.0,"acres":91,"green_percent":0.3,"green_acres":27.3,"blue_percent":0.4,"blue_acres":36.4,"black_percent":0.3,"black_acres":27.3,"lat":39.12,"lon":-79.37,"size_category":"Medium","avg_snowfall":null},{"resort_name":"Cannon Mountain, NH","state":"New Hampshire ","summit":4080.0,"base":1900.0,"vertical":2180.0,"lifts":10.0,"runs":73.0,"acres":264,"green_percent":0.21,"green_acres":55.44,"blue_percent":0.47,"blue_acres":124.08,"black_percent":0.32,"black_acres":84.48,"lat":44.15,"lon":-71.69,"size_category":"Large","avg_snowfall":null},{"resort_name":"Cannonsburg, MI","state":"Michigan","summit":null,"base":null,"vertical":250.0,"lifts":10.0,"runs":19.0,"acres":100,"green_percent":0.2,"green_acres":20.0,"blue_percent":0.25,"blue_acres":25.0,"black_percent":0.55,"black_acres":55.0,"lat":43.06,"lon":-85.48,"size_category":"Medium","avg_snowfall":null},{"resort_name":"Cascade Mountain, WI","state":"Wisconsin","summit":1280.0,"base":820.0,"vertical":460.0,"lifts":10.0,"runs":35.0,"acres":160,"green_percent":0.38,"green_acres":60.8,"blue_percent":0.24,"blue_acres":38.4,"black_percent":0.38,"black_acres":60.8,"lat":43.49,"lon":-89.52,"size_category":"Medium","avg_snowfall":null},{"resort_name":"Cataloochee, NC","state":"North Carolina","summit":5400.0,"base":4660.0,"vertical":740.0,"lifts":5.0,"runs":12.0,"acres":50,"green_percent":0.25,"green_acres":12.5,"blue_percent":0.5,"blue_acres":25.0,"black_percent":0.25,"black_acres":12.5,"lat":35.63,"lon":-83.09,"size_category":"Small","avg_snowfall":null},{"resort_name":"Catamount, NY","state":"New York","summit":2000.0,"base":1000.0,"vertical":1000.0,"lifts":6.0,"runs":33.0,"acres":130,"green_percent":0.32,"green_acres":41.6,"blue_percent":0.33,"blue_acres":42.9,"black_percent":0.35,"black_acres":45.5,"lat":44.59,"lon":-74.09,"size_category":"Medium","avg_snowfall":null},{"resort_name":"Chester Bowl Park, MN","state":"Minnesota","summit":875.0,"base":700.0,"vertical":175.0,"lifts":1.0,"runs":4.0,"acres":117,"green_percent":0.4,"green_acres":46.8,"blue_percent":0.6,"blue_acres":70.2,"black_percent":null,"black_acres":0.0,"lat":46.73,"lon":-94.69,"size_category":"Medium","avg_snowfall":null},{"resort_name":"Chestnut Mountain, IL","state":"Illinois","summit":1040.0,"base":565.0,"vertical":475.0,"lifts":9.0,"runs":19.0,"acres":146,"green_percent":0.3,"green_acres":43.8,"blue_percent":0.4,"blue_acres":58.4,"black_percent":0.3,"black_acres":43.8,"lat":42.32,"lon":-90.38,"size_category":"Medium","avg_snowfall":null},{"resort_name":"China Peak, CA","state":"California","summit":8709.0,"base":7030.0,"vertical":1679.0,"lifts":11.0,"runs":45.0,"acres":1200,"green_percent":0.11,"green_acres":132.0,"blue_percent":0.28,"blue_acres":336.0,"black_percent":0.61,"black_acres":732.0,"lat":40.9,"lon":-123.34,"size_category":"Very Large","avg_snowfall":null},{"resort_name":"Christie Mountain, WI","state":"Wisconsin","summit":1650.0,"base":1300.0,"vertical":350.0,"lifts":5.0,"runs":21.0,"acres":100,"green_percent":0.4,"green_acres":40.0,"blue_percent":0.25,"blue_acres":25.0,"black_percent":0.35,"black_acres":35.0,"lat":45.19,"lon":-88.49,"size_category":"Medium","avg_snowfall":null},{"resort_name":"Christmas Mountain, WI","state":"Wisconsin","summit":1250.0,"base":1000.0,"vertical":250.0,"lifts":3.0,"runs":10.0,"acres":40,"green_percent":0.4,"green_acres":16.0,"blue_percent":0.4,"blue_acres":16.0,"black_percent":0.2,"black_acres":8.0,"lat":43.6,"lon":-89.87,"size_category":"Small","avg_snowfall":null},{"resort_name":"Clear Fork, OH","state":"Ohio","summit":2400.0,"base":2100.0,"vertical":300.0,"lifts":6.0,"runs":9.0,"acres":60,"green_percent":0.29,"green_acres":17.4,"blue_percent":0.42,"blue_acres":25.2,"black_percent":0.29,"black_acres":17.4,"lat":41.68,"lon":-84.58,"size_category":"Small","avg_snowfall":null},{"resort_name":"Cloudmont, AL","state":"Alabama","summit":1800.0,"base":1650.0,"vertical":150.0,"lifts":2.0,"runs":2.0,"acres":10,"green_percent":0.5,"green_acres":5.0,"blue_percent":0.5,"blue_acres":5.0,"black_percent":null,"black_acres":0.0,"lat":33.4,"lon":-86.08,"size_category":"Small","avg_snowfall":null},{"resort_name":"Cochran, VT","state":"Vermont","summit":1000.0,"base":500.0,"vertical":500.0,"lifts":5.0,"runs":6.0,"acres":30,"green_percent":0.22,"green_acres":6.6,"blue_percent":0.56,"blue_acres":16.8,"black_percent":0.22,"black_acres":6.6,"lat":44.39,"lon":-72.97,"size_category":"Small","avg_snowfall":null},{"resort_name":"Coffee Mill, MN","state":"Minnesota","summit":1150.0,"base":725.0,"vertical":425.0,"lifts":3.0,"runs":10.0,"acres":28,"green_percent":0.3,"green_acres":8.4,"blue_percent":0.4,"blue_acres":11.2,"black_percent":0.3,"black_acres":8.4,"lat":44.36,"lon":-92.04,"size_category":"Small","avg_snowfall":null},{"resort_name":"Cooper Spur, OR","state":"Oregon","summit":4350.0,"base":4000.0,"vertical":350.0,"lifts":2.0,"runs":10.0,"acres":50,"green_percent":0.4,"green_acres":20.0,"blue_percent":0.4,"blue_acres":20.0,"black_percent":0.2,"black_acres":10.0,"lat":45.39,"lon":-121.67,"size_category":"Small","avg_snowfall":null},{"resort_name":"Copper Mt, CO","state":"Colorado","summit":12313.0,"base":9712.0,"vertical":2601.0,"lifts":22.0,"runs":127.0,"acres":2465,"green_percent":0.21,"green_acres":517.65,"blue_percent":0.25,"blue_acres":616.25,"black_percent":0.54,"black_acres":1331.1,"lat":39.46,"lon":-106.17,"size_category":"Very Large","avg_snowfall":null},{"resort_name":"Cortina, NY","state":"New York","summit":2650.0,"base":1925.0,"vertical":725.0,"lifts":4.0,"runs":18.0,"acres":87,"green_percent":0.45,"green_acres":39.15,"blue_percent":0.5,"blue_acres":43.5,"black_percent":0.05,"black_acres":4.35,"lat":43.15,"lon":-76.31,"size_category":"Medium","avg_snowfall":null},{"resort_name":"Cottonwood Butte, ID","state":"Idaho","summit":5565.0,"base":4280.0,"vertical":845.0,"lifts":2.0,"runs":7.0,"acres":260,"green_percent":0.28,"green_acres":72.8,"blue_percent":0.29,"blue_acres":75.4,"black_percent":0.43,"black_acres":111.8,"lat":46.06,"lon":-116.46,"size_category":"Large","avg_snowfall":null},{"resort_name":"Cranmore Mountain, NH","state":"New Hampshire ","summit":2000.0,"base":500.0,"vertical":1500.0,"lifts":10.0,"runs":54.0,"acres":200,"green_percent":0.36,"green_acres":72.0,"blue_percent":0.44,"blue_acres":88.0,"black_percent":0.2,"black_acres":40.0,"lat":44.06,"lon":-71.11,"size_category":"Large","avg_snowfall":null},{"resort_name":"Crested Butte, CO","state":"Colorado","summit":12162.0,"base":9375.0,"vertical":2787.0,"lifts":16.0,"runs":121.0,"acres":1547,"green_percent":0.21,"green_acres":324.87,"blue_percent":0.46,"blue_acres":711.62,"black_percent":0.33,"black_acres":510.51,"lat":38.87,"lon":-106.99,"size_category":"Very Large","avg_snowfall":null},{"resort_name":"Crotched Mountain, NH","state":"New Hampshire ","summit":2066.0,"base":1050.0,"vertical":1000.0,"lifts":5.0,"runs":25.0,"acres":100,"green_percent":0.28,"green_acres":28.0,"blue_percent":0.4,"blue_acres":40.0,"black_percent":0.32,"black_acres":32.0,"lat":42.99,"lon":-71.88,"size_category":"Medium","avg_snowfall":null},{"resort_name":"Crystal Mountain, MI","state":"Michigan","summit":1132.0,"base":757.0,"vertical":375.0,"lifts":8.0,"runs":45.0,"acres":85,"green_percent":0.25,"green_acres":21.25,"blue_percent":0.49,"blue_acres":41.65,"black_percent":0.26,"black_acres":22.1,"lat":44.51,"lon":-86.0,"size_category":"Medium","avg_snowfall":null},{"resort_name":"Crystal Mountain, WA","state":"Washington","summit":7012.0,"base":4400.0,"vertical":3100.0,"lifts":12.0,"runs":57.0,"acres":2600,"green_percent":0.11,"green_acres":286.0,"blue_percent":0.54,"blue_acres":1404.0,"black_percent":0.35,"black_acres":910.0,"lat":46.92,"lon":-121.52,"size_category":"Very Large","avg_snowfall":null},{"resort_name":"Dartmouth Skiway, NH","state":"New Hampshire ","summit":1943.0,"base":975.0,"vertical":968.0,"lifts":4.0,"runs":31.0,"acres":107,"green_percent":0.24,"green_acres":25.68,"blue_percent":0.5,"blue_acres":53.5,"black_percent":0.26,"black_acres":27.82,"lat":43.2,"lon":-71.56,"size_category":"Medium","avg_snowfall":null},{"resort_name":"Dear Valley, UT","state":"Utah","summit":9570.0,"base":6570.0,"vertical":3000.0,"lifts":21.0,"runs":100.0,"acres":2026,"green_percent":0.27,"green_acres":547.02,"blue_percent":0.4,"blue_acres":810.4,"black_percent":0.33,"black_acres":668.58,"lat":40.61,"lon":-111.5,"size_category":"Very Large","avg_snowfall":null},{"resort_name":"Devil's Head, WI","state":"Wisconsin","summit":995.0,"base":495.0,"vertical":500.0,"lifts":11.0,"runs":30.0,"acres":300,"green_percent":0.3,"green_acres":90.0,"blue_percent":0.4,"blue_acres":120.0,"black_percent":0.3,"black_acres":90.0,"lat":46.22,"lon":-89.26,"size_category":"Large","avg_snowfall":null},{"resort_name":"Diamond Peak, NV","state":"Nevada","summit":8540.0,"base":6700.0,"vertical":1840.0,"lifts":6.0,"runs":31.0,"acres":655,"green_percent":0.18,"green_acres":117.9,"blue_percent":0.46,"blue_acres":301.3,"black_percent":0.36,"black_acres":235.8,"lat":39.58,"lon":-115.81,"size_category":"Large","avg_snowfall":null},{"resort_name":"Discovery Basin, MT","state":"Montana","summit":8158.0,"base":5770.0,"vertical":2388.0,"lifts":7.0,"runs":67.0,"acres":2200,"green_percent":0.2,"green_acres":440.0,"blue_percent":0.25,"blue_acres":550.0,"black_percent":0.55,"black_acres":1210.0,"lat":46.26,"lon":-112.26,"size_category":"Very Large","avg_snowfall":null},{"resort_name":"Dodge Ridge, CA","state":"California","summit":8200.0,"base":6600.0,"vertical":1600.0,"lifts":12.0,"runs":67.0,"acres":852,"green_percent":0.2,"green_acres":170.4,"blue_percent":0.4,"blue_acres":340.8,"black_percent":0.4,"black_acres":340.8,"lat":38.14,"lon":-120.03,"size_category":"Very Large","avg_snowfall":null},{"resort_name":"Donner Ski Ranch, CA","state":"California","summit":7781.0,"base":7031.0,"vertical":750.0,"lifts":8.0,"runs":53.0,"acres":503,"green_percent":0.25,"green_acres":125.75,"blue_percent":0.5,"blue_acres":251.5,"black_percent":0.25,"black_acres":125.75,"lat":39.31,"lon":-120.34,"size_category":"Large","avg_snowfall":null},{"resort_name":"Dry Hill, NY","state":"New York","summit":950.0,"base":650.0,"vertical":300.0,"lifts":3.0,"runs":7.0,"acres":42,"green_percent":0.33,"green_acres":13.86,"blue_percent":0.34,"blue_acres":14.28,"black_percent":0.33,"black_acres":13.86,"lat":42.99,"lon":-75.21,"size_category":"Small","avg_snowfall":null},{"resort_name":"Eagle Point, UT","state":"Utah","summit":10500.0,"base":9100.0,"vertical":1400.0,"lifts":6.0,"runs":40.0,"acres":625,"green_percent":0.2,"green_acres":125.0,"blue_percent":0.35,"blue_acres":218.75,"black_percent":0.45,"black_acres":281.25,"lat":41.25,"lon":-111.8,"size_category":"Large","avg_snowfall":null},{"resort_name":"Eagle Rock, PA","state":"Pennsylvania","summit":1810.0,"base":1300.0,"vertical":550.0,"lifts":3.0,"runs":14.0,"acres":43,"green_percent":0.6,"green_acres":25.8,"blue_percent":0.1,"blue_acres":4.3,"black_percent":0.3,"black_acres":12.9,"lat":39.83,"lon":-77.53,"size_category":"Small","avg_snowfall":null},{"resort_name":"Eaglecrest, AK","state":"Alaska","summit":2600.0,"base":1200.0,"vertical":1540.0,"lifts":4.0,"runs":31.0,"acres":640,"green_percent":0.2,"green_acres":128.0,"blue_percent":0.4,"blue_acres":256.0,"black_percent":0.4,"black_acres":256.0,"lat":58.3,"lon":-134.55,"size_category":"Large","avg_snowfall":null},{"resort_name":"Echo Valley, WA","state":"Washington","summit":3900.0,"base":3000.0,"vertical":900.0,"lifts":4.0,"runs":8.0,"acres":70,"green_percent":0.25,"green_acres":17.5,"blue_percent":0.5,"blue_acres":35.0,"black_percent":0.25,"black_acres":17.5,"lat":48.64,"lon":-117.93,"size_category":"Small","avg_snowfall":null},{"resort_name":"Eldora, CO","state":"Colorado","summit":10800.0,"base":9200.0,"vertical":1600.0,"lifts":12.0,"runs":53.0,"acres":680,"green_percent":0.2,"green_acres":136.0,"blue_percent":0.5,"blue_acres":340.0,"black_percent":0.3,"black_acres":204.0,"lat":39.94,"lon":-105.56,"size_category":"Very Large","avg_snowfall":null},{"resort_name":"Elk Mountain, PA","state":"Pennsylvania","summit":2693.0,"base":1693.0,"vertical":1000.0,"lifts":6.0,"runs":27.0,"acres":140,"green_percent":0.25,"green_acres":35.0,"blue_percent":0.3,"blue_acres":42.0,"black_percent":0.45,"black_acres":63.0,"lat":41.72,"lon":-75.55,"size_category":"Medium","avg_snowfall":null},{"resort_name":"Elk Ridge, AZ","state":"Arizona ","summit":8150.0,"base":7500.0,"vertical":600.0,"lifts":2.0,"runs":12.0,"acres":37,"green_percent":0.3,"green_acres":11.1,"blue_percent":0.5,"blue_acres":18.5,"black_percent":0.2,"black_acres":7.4,"lat":35.1,"lon":-112.23,"size_category":"Small","avg_snowfall":null},{"resort_name":"Four Lakes, IL","state":"Illinois","summit":500.0,"base":400.0,"vertical":100.0,"lifts":7.0,"runs":5.0,"acres":9,"green_percent":0.3,"green_acres":2.7,"blue_percent":0.7,"blue_acres":6.3,"black_percent":0.0,"black_acres":0.0,"lat":41.79,"lon":-88.09,"size_category":"Small","avg_snowfall":null},{"resort_name":"Four Seasons, NY","state":"New York","summit":550.0,"base":450.0,"vertical":100.0,"lifts":2.0,"runs":4.0,"acres":12,"green_percent":0.4,"green_acres":4.8,"blue_percent":0.4,"blue_acres":4.8,"black_percent":0.2,"black_acres":2.4,"lat":42.48,"lon":-73.81,"size_category":"Small","avg_snowfall":null},{"resort_name":"Frost Fire, ND","state":"North Dakota","summit":1350.0,"base":1000.0,"vertical":350.0,"lifts":3.0,"runs":10.0,"acres":25,"green_percent":0.25,"green_acres":6.25,"blue_percent":0.25,"blue_acres":6.25,"black_percent":0.5,"black_acres":12.5,"lat":48.91,"lon":-98.07,"size_category":"Small","avg_snowfall":null},{"resort_name":"Giants Ridge, MN","state":"Minnesota","summit":1972.0,"base":1472.0,"vertical":500.0,"lifts":7.0,"runs":35.0,"acres":202,"green_percent":0.31,"green_acres":62.62,"blue_percent":0.44,"blue_acres":88.88,"black_percent":0.25,"black_acres":50.5,"lat":47.59,"lon":-92.3,"size_category":"Large","avg_snowfall":null},{"resort_name":"Gladstone, MI","state":"Michigan","summit":null,"base":null,"vertical":130.0,"lifts":5.0,"runs":6.0,"acres":30,"green_percent":0.6,"green_acres":18.0,"blue_percent":0.4,"blue_acres":12.0,"black_percent":null,"black_acres":0.0,"lat":45.86,"lon":-87.02,"size_category":"Small","avg_snowfall":null},{"resort_name":"Gore Mountain, NY","state":"New York","summit":3600.0,"base":1500.0,"vertical":2537.0,"lifts":14.0,"runs":94.0,"acres":438,"green_percent":0.11,"green_acres":48.18,"blue_percent":0.53,"blue_acres":232.14,"black_percent":0.36,"black_acres":157.68,"lat":43.67,"lon":-74.05,"size_category":"Large","avg_snowfall":null},{"resort_name":"Grand Geneva, WI","state":"Wisconsin","summit":1086.0,"base":874.0,"vertical":211.0,"lifts":6.0,"runs":18.0,"acres":14,"green_percent":0.3,"green_acres":4.2,"blue_percent":0.4,"blue_acres":5.6,"black_percent":0.3,"black_acres":4.2,"lat":42.6,"lon":-88.4,"size_category":"Small","avg_snowfall":null},{"resort_name":"Grand Targhee, WY","state":"Wyoming","summit":10000.0,"base":7408.0,"vertical":2419.0,"lifts":5.0,"runs":72.0,"acres":3000,"green_percent":0.1,"green_acres":300.0,"blue_percent":0.7,"blue_acres":2100.0,"black_percent":0.2,"black_acres":600.0,"lat":43.74,"lon":-111.07,"size_category":"Very Large","avg_snowfall":null},{"resort_name":"Granite Gorge, NH","state":"New Hampshire ","summit":null,"base":null,"vertical":525.0,"lifts":2.0,"runs":17.0,"acres":25,"green_percent":0.35,"green_acres":8.75,"blue_percent":0.35,"blue_acres":8.75,"black_percent":0.3,"black_acres":7.5,"lat":42.97,"lon":-72.21,"size_category":"Small","avg_snowfall":null},{"resort_name":"Granite Peak, WI","state":"Wisconsin","summit":1924.0,"base":1224.0,"vertical":700.0,"lifts":8.0,"runs":74.0,"acres":275,"green_percent":0.35,"green_acres":96.25,"blue_percent":0.3,"blue_acres":82.5,"black_percent":0.35,"black_acres":96.25,"lat":43.79,"lon":-88.79,"size_category":"Large","avg_snowfall":null},{"resort_name":"Great Bear, SD","state":"South Dakota","summit":null,"base":null,"vertical":183.0,"lifts":5.0,"runs":12.0,"acres":20,"green_percent":0.25,"green_acres":5.0,"blue_percent":0.5,"blue_acres":10.0,"black_percent":0.25,"black_acres":5.0,"lat":43.57,"lon":-96.67,"size_category":"Small","avg_snowfall":null},{"resort_name":"Great Divide, MT","state":"Montana","summit":7210.0,"base":5880.0,"vertical":1330.0,"lifts":6.0,"runs":140.0,"acres":1600,"green_percent":0.15,"green_acres":240.0,"blue_percent":0.35,"blue_acres":560.0,"black_percent":0.5,"black_acres":800.0,"lat":25.0,"lon":-147.0,"size_category":"Very Large","avg_snowfall":null},{"resort_name":"Greek Peak Mountain, NY","state":"New York","summit":2100.0,"base":1148.0,"vertical":952.0,"lifts":8.0,"runs":32.0,"acres":220,"green_percent":0.4,"green_acres":88.0,"blue_percent":0.25,"blue_acres":55.0,"black_percent":0.35,"black_acres":77.0,"lat":40.71,"lon":-74.01,"size_category":"Large","avg_snowfall":null},{"resort_name":"Gunstock, NH","state":"New Hampshire ","summit":2300.0,"base":900.0,"vertical":1400.0,"lifts":7.0,"runs":55.0,"acres":227,"green_percent":0.12,"green_acres":27.24,"blue_percent":0.61,"blue_acres":138.47,"black_percent":0.27,"black_acres":61.29,"lat":42.91,"lon":-71.08,"size_category":"Large","avg_snowfall":null},{"resort_name":"Hanson Hills, MI","state":"Michigan","summit":null,"base":null,"vertical":225.0,"lifts":4.0,"runs":11.0,"acres":125,"green_percent":0.5,"green_acres":62.5,"blue_percent":0.5,"blue_acres":62.5,"black_percent":null,"black_acres":0.0,"lat":44.64,"lon":-84.75,"size_category":"Medium","avg_snowfall":null},{"resort_name":"Heavenly, CA","state":"California","summit":10067.0,"base":6540.0,"vertical":3527.0,"lifts":29.0,"runs":97.0,"acres":4800,"green_percent":0.2,"green_acres":960.0,"blue_percent":0.45,"blue_acres":2160.0,"black_percent":0.35,"black_acres":1680.0,"lat":38.9353,"lon":-119.94,"size_category":"Very Large","avg_snowfall":null},{"resort_name":"Hidden Valley, MO","state":"Missouri","summit":null,"base":null,"vertical":310.0,"lifts":6.0,"runs":12.0,"acres":30,"green_percent":0.3,"green_acres":9.0,"blue_percent":0.6,"blue_acres":18.0,"black_percent":0.1,"black_acres":3.0,"lat":38.95,"lon":-94.54,"size_category":"Small","avg_snowfall":null},{"resort_name":"Hidden Valley, NJ","state":"New Jersey","summit":1435.0,"base":815.0,"vertical":640.0,"lifts":4.0,"runs":13.0,"acres":36,"green_percent":0.25,"green_acres":9.0,"blue_percent":0.3,"blue_acres":10.8,"black_percent":0.45,"black_acres":16.2,"lat":40.64,"lon":-74.88,"size_category":"Small","avg_snowfall":null},{"resort_name":"Hidden Valley, PA","state":"Pennsylvania","summit":2875.0,"base":2405.0,"vertical":470.0,"lifts":11.0,"runs":31.0,"acres":110,"green_percent":0.31,"green_acres":34.1,"blue_percent":0.45,"blue_acres":49.5,"black_percent":0.24,"black_acres":26.4,"lat":40.06,"lon":-79.26,"size_category":"Medium","avg_snowfall":null},{"resort_name":"Hidden Valley, WI","state":"Wisconsin","summit":null,"base":null,"vertical":200.0,"lifts":2.0,"runs":7.0,"acres":50,"green_percent":0.25,"green_acres":12.5,"blue_percent":0.5,"blue_acres":25.0,"black_percent":0.25,"black_acres":12.5,"lat":43.03,"lon":-88.18,"size_category":"Small","avg_snowfall":null},{"resort_name":"Highlands of Olympia, WI","state":"Wisconsin","summit":null,"base":null,"vertical":205.0,"lifts":null,"runs":3.0,"acres":5,"green_percent":0.5,"green_acres":2.5,"blue_percent":0.3,"blue_acres":1.5,"black_percent":0.2,"black_acres":1.0,"lat":43.79,"lon":-88.79,"size_category":"Small","avg_snowfall":null},{"resort_name":"Hilltop, AK","state":"Alaska","summit":894.0,"base":600.0,"vertical":294.0,"lifts":3.0,"runs":10.0,"acres":30,"green_percent":0.8,"green_acres":24.0,"blue_percent":0.1,"blue_acres":3.0,"black_percent":0.1,"black_acres":3.0,"lat":61.43,"lon":-149.44,"size_category":"Small","avg_snowfall":null},{"resort_name":"Hogadon, WY","state":"Wyoming","summit":8000.0,"base":7400.0,"vertical":600.0,"lifts":3.0,"runs":15.0,"acres":60,"green_percent":0.2,"green_acres":12.0,"blue_percent":0.4,"blue_acres":24.0,"black_percent":0.4,"black_acres":24.0,"lat":39.52,"lon":-119.87,"size_category":"Small","avg_snowfall":null},{"resort_name":"Holiday Mountain, NY","state":"New York","summit":1300.0,"base":900.0,"vertical":400.0,"lifts":4.0,"runs":7.0,"acres":60,"green_percent":0.3,"green_acres":18.0,"blue_percent":0.4,"blue_acres":24.0,"black_percent":0.3,"black_acres":18.0,"lat":41.63,"lon":-74.62,"size_category":"Small","avg_snowfall":null},{"resort_name":"Holiday Valley, NY","state":"New York","summit":2250.0,"base":1500.0,"vertical":750.0,"lifts":13.0,"runs":58.0,"acres":290,"green_percent":0.34,"green_acres":98.6,"blue_percent":0.28,"blue_acres":81.2,"black_percent":0.38,"black_acres":110.2,"lat":42.26,"lon":-78.68,"size_category":"Large","avg_snowfall":null},{"resort_name":"HoliMont, NY","state":"New York","summit":2260.0,"base":1560.0,"vertical":700.0,"lifts":9.0,"runs":52.0,"acres":140,"green_percent":0.25,"green_acres":35.0,"blue_percent":0.25,"blue_acres":35.0,"black_percent":0.5,"black_acres":70.0,"lat":42.28,"lon":-78.7,"size_category":"Medium","avg_snowfall":null},{"resort_name":"Homewood, CA","state":"California","summit":7800.0,"base":6230.0,"vertical":1570.0,"lifts":8.0,"runs":64.0,"acres":1260,"green_percent":0.15,"green_acres":189.0,"blue_percent":0.5,"blue_acres":630.0,"black_percent":0.35,"black_acres":441.0,"lat":39.08,"lon":-120.17,"size_category":"Very Large","avg_snowfall":null},{"resort_name":"Hoodoo, OR","state":"Oregon","summit":5703.0,"base":4668.0,"vertical":1035.0,"lifts":7.0,"runs":30.0,"acres":806,"green_percent":0.3,"green_acres":241.8,"blue_percent":0.3,"blue_acres":241.8,"black_percent":0.4,"black_acres":322.4,"lat":43.89,"lon":-121.43,"size_category":"Very Large","avg_snowfall":null},{"resort_name":"Huff Hills, ND","state":"North Dakota","summit":null,"base":null,"vertical":450.0,"lifts":2.0,"runs":16.0,"acres":80,"green_percent":0.4,"green_acres":32.0,"blue_percent":0.5,"blue_acres":40.0,"black_percent":0.1,"black_acres":8.0,"lat":46.63,"lon":-100.72,"size_category":"Medium","avg_snowfall":null},{"resort_name":"Hunter Mountain, NY","state":"New York","summit":3200.0,"base":1600.0,"vertical":1600.0,"lifts":10.0,"runs":55.0,"acres":240,"green_percent":0.3,"green_acres":72.0,"blue_percent":0.3,"blue_acres":72.0,"black_percent":0.4,"black_acres":96.0,"lat":42.18,"lon":-74.24,"size_category":"Large","avg_snowfall":null},{"resort_name":"Hyland, MN","state":"Minnesota","summit":1075.0,"base":900.0,"vertical":175.0,"lifts":6.0,"runs":14.0,"acres":35,"green_percent":0.4,"green_acres":14.0,"blue_percent":0.4,"blue_acres":14.0,"black_percent":0.2,"black_acres":7.0,"lat":44.82,"lon":-93.37,"size_category":"Small","avg_snowfall":null},{"resort_name":"Indianhead, MI","state":"Michigan","summit":1935.0,"base":1297.0,"vertical":638.0,"lifts":9.0,"runs":30.0,"acres":238,"green_percent":0.17,"green_acres":40.46,"blue_percent":0.33,"blue_acres":78.54,"black_percent":0.5,"black_acres":119.0,"lat":46.49,"lon":-89.97,"size_category":"Large","avg_snowfall":null},{"resort_name":"Jack Frost, PA","state":"Pennsylvania","summit":2000.0,"base":1400.0,"vertical":600.0,"lifts":9.0,"runs":21.0,"acres":100,"green_percent":0.2,"green_acres":20.0,"blue_percent":0.4,"blue_acres":40.0,"black_percent":0.4,"black_acres":40.0,"lat":41.1,"lon":-75.66,"size_category":"Medium","avg_snowfall":null},{"resort_name":"Jackson Hole, WY","state":"Wyoming","summit":10450.0,"base":6311.0,"vertical":4139.0,"lifts":12.0,"runs":116.0,"acres":2500,"green_percent":0.1,"green_acres":250.0,"blue_percent":0.4,"blue_acres":1000.0,"black_percent":0.5,"black_acres":1250.0,"lat":43.49,"lon":-110.75,"size_category":"Very Large","avg_snowfall":null},{"resort_name":"Jay Peak, VT","state":"Vermont","summit":3968.0,"base":1815.0,"vertical":2153.0,"lifts":9.0,"runs":78.0,"acres":385,"green_percent":0.2,"green_acres":77.0,"blue_percent":0.4,"blue_acres":154.0,"black_percent":0.4,"black_acres":154.0,"lat":44.97,"lon":-72.47,"size_category":"Large","avg_snowfall":null},{"resort_name":"Jiminy Peak, MA","state":"Massachusetts ","summit":2380.0,"base":1250.0,"vertical":1150.0,"lifts":9.0,"runs":45.0,"acres":170,"green_percent":0.22,"green_acres":37.4,"blue_percent":0.45,"blue_acres":76.5,"black_percent":0.33,"black_acres":56.1,"lat":42.55,"lon":-73.3,"size_category":"Medium","avg_snowfall":null},{"resort_name":"Kelly Canyon, ID","state":"Idaho","summit":6600.0,"base":5600.0,"vertical":1000.0,"lifts":6.0,"runs":16.0,"acres":640,"green_percent":0.35,"green_acres":224.0,"blue_percent":0.45,"blue_acres":288.0,"black_percent":0.2,"black_acres":128.0,"lat":44.14,"lon":-112.7,"size_category":"Large","avg_snowfall":null},{"resort_name":"Keystone, CO","state":"Colorado","summit":12408.0,"base":9280.0,"vertical":3128.0,"lifts":20.0,"runs":135.0,"acres":3148,"green_percent":0.19,"green_acres":598.12,"blue_percent":0.32,"blue_acres":1007.36,"black_percent":0.49,"black_acres":1542.52,"lat":39.6,"lon":-105.95,"size_category":"Very Large","avg_snowfall":null},{"resort_name":"Killington, VT","state":"Vermont","summit":4241.0,"base":1165.0,"vertical":3050.0,"lifts":22.0,"runs":140.0,"acres":752,"green_percent":0.28,"green_acres":210.56,"blue_percent":0.33,"blue_acres":248.16,"black_percent":0.39,"black_acres":293.28,"lat":43.67,"lon":-72.78,"size_category":"Very Large","avg_snowfall":null},{"resort_name":"Kirkwood, CA","state":"California","summit":9800.0,"base":7800.0,"vertical":2000.0,"lifts":15.0,"runs":81.0,"acres":2300,"green_percent":0.15,"green_acres":345.0,"blue_percent":0.5,"blue_acres":1150.0,"black_percent":0.35,"black_acres":805.0,"lat":38.684,"lon":-120.068,"size_category":"Very Large","avg_snowfall":null},{"resort_name":"Kissing Bridge, NY","state":"New York","summit":1750.0,"base":1200.0,"vertical":550.0,"lifts":10.0,"runs":38.0,"acres":778,"green_percent":0.35,"green_acres":272.3,"blue_percent":0.35,"blue_acres":272.3,"black_percent":0.3,"black_acres":233.4,"lat":42.61,"lon":-78.65,"size_category":"Very Large","avg_snowfall":null},{"resort_name":"Labrador Mountain, NY","state":"New York","summit":1825.0,"base":1125.0,"vertical":700.0,"lifts":4.0,"runs":22.0,"acres":250,"green_percent":0.33,"green_acres":82.5,"blue_percent":0.34,"blue_acres":85.0,"black_percent":0.33,"black_acres":82.5,"lat":40.71,"lon":-74.01,"size_category":"Large","avg_snowfall":null},{"resort_name":"Las Vegas, NV","state":"Nevada","summit":11289.0,"base":8510.0,"vertical":2300.0,"lifts":4.0,"runs":30.0,"acres":195,"green_percent":0.1,"green_acres":19.5,"blue_percent":0.45,"blue_acres":87.75,"black_percent":0.45,"black_acres":87.75,"lat":36.12,"lon":-115.18,"size_category":"Large","avg_snowfall":null},{"resort_name":"Liberty Mountain, PA","state":"Pennsylvania","summit":1190.0,"base":800.0,"vertical":600.0,"lifts":8.0,"runs":16.0,"acres":100,"green_percent":0.35,"green_acres":35.0,"blue_percent":0.4,"blue_acres":40.0,"black_percent":0.25,"black_acres":25.0,"lat":41.51,"lon":-77.09,"size_category":"Medium","avg_snowfall":null},{"resort_name":"Little Ski Hill, ID","state":"Idaho","summit":5700.0,"base":null,"vertical":405.0,"lifts":1.0,"runs":5.0,"acres":40,"green_percent":0.35,"green_acres":14.0,"blue_percent":0.45,"blue_acres":18.0,"black_percent":0.2,"black_acres":8.0,"lat":44.93,"lon":-116.16,"size_category":"Small","avg_snowfall":null},{"resort_name":"Little Switzerland, WI","state":"Wisconsin","summit":null,"base":null,"vertical":200.0,"lifts":7.0,"runs":17.0,"acres":50,"green_percent":null,"green_acres":0.0,"blue_percent":null,"blue_acres":0.0,"black_percent":null,"black_acres":0.0,"lat":43.79,"lon":-88.79,"size_category":"Small","avg_snowfall":null},{"resort_name":"Lookout Pass, ID","state":"Idaho","summit":5650.0,"base":4500.0,"vertical":1150.0,"lifts":4.0,"runs":34.0,"acres":540,"green_percent":0.2,"green_acres":108.0,"blue_percent":0.5,"blue_acres":270.0,"black_percent":0.3,"black_acres":162.0,"lat":47.47,"lon":-115.69,"size_category":"Large","avg_snowfall":null},{"resort_name":"Loon, NH","state":"New Hampshire ","summit":3050.0,"base":950.0,"vertical":2100.0,"lifts":12.0,"runs":61.0,"acres":370,"green_percent":0.2,"green_acres":74.0,"blue_percent":0.6,"blue_acres":222.0,"black_percent":0.2,"black_acres":74.0,"lat":43.8,"lon":-71.02,"size_category":"Large","avg_snowfall":null},{"resort_name":"Lost Trail Powder, MT","state":"Montana","summit":8200.0,"base":6400.0,"vertical":1800.0,"lifts":8.0,"runs":50.0,"acres":900,"green_percent":0.2,"green_acres":180.0,"blue_percent":0.6,"blue_acres":540.0,"black_percent":0.2,"black_acres":180.0,"lat":45.69,"lon":-111.06,"size_category":"Very Large","avg_snowfall":null},{"resort_name":"Lost Valley, ME","state":"Maine","summit":null,"base":null,"vertical":240.0,"lifts":2.0,"runs":17.0,"acres":45,"green_percent":0.3,"green_acres":13.5,"blue_percent":0.5,"blue_acres":22.5,"black_percent":0.2,"black_acres":9.0,"lat":44.12,"lon":-70.27,"size_category":"Small","avg_snowfall":null},{"resort_name":"Loup Loup, WA","state":"Washington","summit":5280.0,"base":4040.0,"vertical":1240.0,"lifts":4.0,"runs":10.0,"acres":300,"green_percent":0.2,"green_acres":60.0,"blue_percent":0.3,"blue_acres":90.0,"black_percent":0.5,"black_acres":150.0,"lat":48.29,"lon":-119.71,"size_category":"Large","avg_snowfall":null},{"resort_name":"Loveland, CO","state":"Colorado","summit":13010.0,"base":10800.0,"vertical":2210.0,"lifts":10.0,"runs":93.0,"acres":1800,"green_percent":0.13,"green_acres":234.0,"blue_percent":0.41,"blue_acres":738.0,"black_percent":0.46,"black_acres":828.0,"lat":40.41,"lon":-105.08,"size_category":"Very Large","avg_snowfall":null},{"resort_name":"Lutsen Mountains, MN","state":"Minnesota","summit":1913.0,"base":1088.0,"vertical":825.0,"lifts":10.0,"runs":92.0,"acres":986,"green_percent":0.18,"green_acres":177.48,"blue_percent":0.47,"blue_acres":463.42,"black_percent":0.35,"black_acres":345.1,"lat":46.73,"lon":-94.69,"size_category":"Very Large","avg_snowfall":null},{"resort_name":"Mad River Glen, VT","state":"Vermont","summit":3637.0,"base":1600.0,"vertical":2037.0,"lifts":5.0,"runs":45.0,"acres":915,"green_percent":0.3,"green_acres":274.5,"blue_percent":0.3,"blue_acres":274.5,"black_percent":0.4,"black_acres":366.0,"lat":44.57,"lon":-72.57,"size_category":"Very Large","avg_snowfall":null},{"resort_name":"Mad River, OH","state":"Ohio","summit":1460.0,"base":1160.0,"vertical":300.0,"lifts":14.0,"runs":24.0,"acres":144,"green_percent":0.22,"green_acres":31.68,"blue_percent":0.34,"blue_acres":48.96,"black_percent":0.44,"black_acres":63.36,"lat":39.91,"lon":-83.93,"size_category":"Medium","avg_snowfall":null},{"resort_name":"Magic Mountain, ID","state":"Idaho","summit":7240.0,"base":6500.0,"vertical":700.0,"lifts":3.0,"runs":11.0,"acres":120,"green_percent":0.3,"green_acres":36.0,"blue_percent":0.25,"blue_acres":30.0,"black_percent":0.45,"black_acres":54.0,"lat":42.2,"lon":-114.41,"size_category":"Medium","avg_snowfall":null},{"resort_name":"Magic Mountain, VT","state":"Vermont","summit":2850.0,"base":1150.0,"vertical":1700.0,"lifts":4.0,"runs":43.0,"acres":195,"green_percent":0.3,"green_acres":58.5,"blue_percent":0.3,"blue_acres":58.5,"black_percent":0.4,"black_acres":78.0,"lat":43.2,"lon":-72.77,"size_category":"Large","avg_snowfall":null},{"resort_name":"Mammoth, CA","state":"California","summit":11053.0,"base":7953.0,"vertical":3100.0,"lifts":28.0,"runs":150.0,"acres":3500,"green_percent":0.25,"green_acres":875.0,"blue_percent":0.4,"blue_acres":1400.0,"black_percent":0.35,"black_acres":1225.0,"lat":41.73,"lon":-121.37,"size_category":"Very Large","avg_snowfall":null},{"resort_name":"Marquette Mountain, MI","state":"Michigan","summit":1357.0,"base":757.0,"vertical":600.0,"lifts":4.0,"runs":25.0,"acres":169,"green_percent":0.15,"green_acres":25.35,"blue_percent":0.5,"blue_acres":84.5,"black_percent":0.35,"black_acres":59.15,"lat":46.53,"lon":-87.41,"size_category":"Medium","avg_snowfall":null},{"resort_name":"Massanutten, VA","state":"Virginia","summit":2925.0,"base":1750.0,"vertical":1110.0,"lifts":7.0,"runs":14.0,"acres":70,"green_percent":0.3,"green_acres":21.0,"blue_percent":0.35,"blue_acres":24.5,"black_percent":0.35,"black_acres":24.5,"lat":38.41,"lon":-78.73,"size_category":"Small","avg_snowfall":null},{"resort_name":"Maverick Mountain, MT","state":"Montana","summit":8820.0,"base":6800.0,"vertical":2020.0,"lifts":2.0,"runs":24.0,"acres":210,"green_percent":0.2,"green_acres":42.0,"blue_percent":0.35,"blue_acres":73.5,"black_percent":0.45,"black_acres":94.5,"lat":45.45,"lon":-113.16,"size_category":"Large","avg_snowfall":null},{"resort_name":"McCauley Mountain, NY ","state":"New York","summit":2260.0,"base":1627.0,"vertical":633.0,"lifts":5.0,"runs":21.0,"acres":75,"green_percent":0.33,"green_acres":24.75,"blue_percent":0.34,"blue_acres":25.5,"black_percent":0.33,"black_acres":24.75,"lat":43.39,"lon":-74.89,"size_category":"Medium","avg_snowfall":null},{"resort_name":"Meadowlark, WY","state":"Wyoming","summit":9400.0,"base":8300.0,"vertical":1000.0,"lifts":3.0,"runs":14.0,"acres":160,"green_percent":0.3,"green_acres":48.0,"blue_percent":0.4,"blue_acres":64.0,"black_percent":0.3,"black_acres":48.0,"lat":44.66,"lon":-93.17,"size_category":"Medium","avg_snowfall":null},{"resort_name":"Mission Ridge, WA","state":"Washington","summit":6820.0,"base":4570.0,"vertical":2250.0,"lifts":6.0,"runs":36.0,"acres":2000,"green_percent":0.1,"green_acres":200.0,"blue_percent":0.6,"blue_acres":1200.0,"black_percent":0.3,"black_acres":600.0,"lat":47.34,"lon":-120.47,"size_category":"Very Large","avg_snowfall":null},{"resort_name":"Mohawk Mountain, CT","state":"Connecticut","summit":1600.0,"base":960.0,"vertical":650.0,"lifts":7.0,"runs":25.0,"acres":107,"green_percent":0.2,"green_acres":21.4,"blue_percent":0.6,"blue_acres":64.2,"black_percent":0.2,"black_acres":21.4,"lat":41.83,"lon":-73.31,"size_category":"Medium","avg_snowfall":null},{"resort_name":"Monarch, CO","state":"Colorado","summit":11952.0,"base":10790.0,"vertical":1162.0,"lifts":7.0,"runs":64.0,"acres":800,"green_percent":0.14,"green_acres":112.0,"blue_percent":0.28,"blue_acres":224.0,"black_percent":0.58,"black_acres":464.0,"lat":38.54,"lon":-106.33,"size_category":"Very Large","avg_snowfall":null},{"resort_name":"Mont du Lac, WI","state":"Wisconsin","summit":917.0,"base":617.0,"vertical":315.0,"lifts":4.0,"runs":9.0,"acres":66,"green_percent":0.33,"green_acres":21.78,"blue_percent":0.34,"blue_acres":22.44,"black_percent":0.33,"black_acres":21.78,"lat":46.64,"lon":-92.29,"size_category":"Small","avg_snowfall":null},{"resort_name":"Mont Ripley, MI","state":"Michigan","summit":null,"base":null,"vertical":440.0,"lifts":3.0,"runs":24.0,"acres":112,"green_percent":0.22,"green_acres":24.64,"blue_percent":0.3,"blue_acres":33.6,"black_percent":0.48,"black_acres":53.76,"lat":47.11,"lon":-88.56,"size_category":"Medium","avg_snowfall":null},{"resort_name":"Montage Mountain, PA","state":"Pennsylvania","summit":1960.0,"base":960.0,"vertical":1000.0,"lifts":7.0,"runs":30.0,"acres":140,"green_percent":0.35,"green_acres":49.0,"blue_percent":0.25,"blue_acres":35.0,"black_percent":0.4,"black_acres":56.0,"lat":41.35,"lon":-75.68,"size_category":"Medium","avg_snowfall":null},{"resort_name":"Montana Snowbowl, MT","state":"Montana","summit":7600.0,"base":5000.0,"vertical":2600.0,"lifts":4.0,"runs":32.0,"acres":1200,"green_percent":0.1,"green_acres":120.0,"blue_percent":0.4,"blue_acres":480.0,"black_percent":0.5,"black_acres":600.0,"lat":46.99,"lon":-114.01,"size_category":"Very Large","avg_snowfall":null},{"resort_name":"Moose Mountain, AK","state":"Alaska","summit":1987.0,"base":680.0,"vertical":1307.0,"lifts":14.0,"runs":35.0,"acres":200,"green_percent":0.15,"green_acres":30.0,"blue_percent":0.65,"blue_acres":130.0,"black_percent":0.2,"black_acres":40.0,"lat":64.92,"lon":-147.94,"size_category":"Large","avg_snowfall":null},{"resort_name":"Mount Ashwabay, WI","state":"Wisconsin","summit":1286.0,"base":963.0,"vertical":317.0,"lifts":2.0,"runs":11.0,"acres":65,"green_percent":0.4,"green_acres":26.0,"blue_percent":0.35,"blue_acres":22.75,"black_percent":0.25,"black_acres":16.25,"lat":46.79,"lon":-90.9,"size_category":"Small","avg_snowfall":null},{"resort_name":"Mount Bohemia, MI","state":"Michigan","summit":901.0,"base":1.0,"vertical":900.0,"lifts":2.0,"runs":85.0,"acres":450,"green_percent":null,"green_acres":0.0,"blue_percent":0.07,"blue_acres":31.5,"black_percent":0.93,"black_acres":418.5,"lat":47.4,"lon":-88.0,"size_category":"Large","avg_snowfall":null},{"resort_name":"Mount Kato, MN","state":"Minnesota","summit":540.0,"base":300.0,"vertical":240.0,"lifts":8.0,"runs":19.0,"acres":55,"green_percent":0.24,"green_acres":13.2,"blue_percent":0.59,"blue_acres":32.45,"black_percent":0.17,"black_acres":9.35,"lat":44.15,"lon":-94.04,"size_category":"Small","avg_snowfall":null},{"resort_name":"Mount Pleasant of Edinboro, PA","state":"Pennsylvania","summit":1550.0,"base":1230.0,"vertical":320.0,"lifts":3.0,"runs":8.0,"acres":25,"green_percent":0.2,"green_acres":5.0,"blue_percent":0.7,"blue_acres":17.5,"black_percent":0.1,"black_acres":2.5,"lat":41.85,"lon":-80.07,"size_category":"Small","avg_snowfall":null},{"resort_name":"Mount Rose, CA","state":"California","summit":9700.0,"base":7900.0,"vertical":1800.0,"lifts":6.0,"runs":43.0,"acres":1200,"green_percent":0.2,"green_acres":240.0,"blue_percent":0.3,"blue_acres":360.0,"black_percent":0.5,"black_acres":600.0,"lat":39.34,"lon":-119.92,"size_category":"Very Large","avg_snowfall":null},{"resort_name":"Mount Snow, VT","state":"Vermont","summit":3600.0,"base":1900.0,"vertical":1700.0,"lifts":20.0,"runs":80.0,"acres":588,"green_percent":0.14,"green_acres":82.32,"blue_percent":0.73,"blue_acres":429.24,"black_percent":0.13,"black_acres":76.44,"lat":42.97,"lon":-72.93,"size_category":"Large","avg_snowfall":null},{"resort_name":"Mount Sunapee, NH","state":"New Hampshire ","summit":2743.0,"base":1230.0,"vertical":1510.0,"lifts":11.0,"runs":66.0,"acres":232,"green_percent":0.26,"green_acres":60.32,"blue_percent":0.49,"blue_acres":113.68,"black_percent":0.25,"black_acres":58.0,"lat":43.35,"lon":-72.07,"size_category":"Large","avg_snowfall":null},{"resort_name":"Mountain Creek, NJ","state":"New Jersey","summit":1480.0,"base":440.0,"vertical":1040.0,"lifts":9.0,"runs":41.0,"acres":167,"green_percent":0.2,"green_acres":33.4,"blue_percent":0.57,"blue_acres":95.19,"black_percent":0.23,"black_acres":38.41,"lat":40.84,"lon":-74.82,"size_category":"Medium","avg_snowfall":null},{"resort_name":"Mountain High, CA","state":"California","summit":8200.0,"base":6600.0,"vertical":1600.0,"lifts":12.0,"runs":28.0,"acres":290,"green_percent":0.25,"green_acres":72.5,"blue_percent":0.4,"blue_acres":116.0,"black_percent":0.35,"black_acres":101.5,"lat":41.96,"lon":-122.44,"size_category":"Large","avg_snowfall":null},{"resort_name":"Mt Shasta, CA","state":"California","summit":null,"base":null,"vertical":null,"lifts":5.0,"runs":32.0,"acres":425,"green_percent":0.2,"green_acres":85.0,"blue_percent":0.55,"blue_acres":233.75,"black_percent":0.25,"black_acres":106.25,"lat":41.31,"lon":-122.29,"size_category":"Large","avg_snowfall":null},{"resort_name":"Mt. Abram , ME","state":"Maine","summit":2001.0,"base":971.0,"vertical":1150.0,"lifts":5.0,"runs":44.0,"acres":560,"green_percent":0.28,"green_acres":156.8,"blue_percent":0.48,"blue_acres":268.8,"black_percent":0.24,"black_acres":134.4,"lat":44.38,"lon":-70.72,"size_category":"Large","avg_snowfall":null},{"resort_name":"Mt. Ashland, OR","state":"Oregon","summit":7500.0,"base":6350.0,"vertical":1150.0,"lifts":4.0,"runs":23.0,"acres":200,"green_percent":0.05,"green_acres":10.0,"blue_percent":0.2,"blue_acres":40.0,"black_percent":0.75,"black_acres":150.0,"lat":42.09,"lon":-122.72,"size_category":"Large","avg_snowfall":null},{"resort_name":"Mt. Aurora, AK","state":"Alaska","summit":null,"base":null,"vertical":1050.0,"lifts":3.0,"runs":null,"acres":100,"green_percent":0.2,"green_acres":20.0,"blue_percent":0.4,"blue_acres":40.0,"black_percent":0.4,"black_acres":40.0,"lat":63.52,"lon":-146.54,"size_category":"Medium","avg_snowfall":null},{"resort_name":"Mt. Bachelor, OR","state":"Oregon","summit":9065.0,"base":6300.0,"vertical":3365.0,"lifts":14.0,"runs":71.0,"acres":3683,"green_percent":0.15,"green_acres":552.45,"blue_percent":0.25,"blue_acres":920.75,"black_percent":0.6,"black_acres":2209.8,"lat":43.99,"lon":-121.68,"size_category":"Very Large","avg_snowfall":null},{"resort_name":"Mt. Baker, WA","state":"Washington","summit":5050.0,"base":3500.0,"vertical":1500.0,"lifts":10.0,"runs":38.0,"acres":1000,"green_percent":0.24,"green_acres":240.0,"blue_percent":0.45,"blue_acres":450.0,"black_percent":0.31,"black_acres":310.0,"lat":48.78,"lon":-121.81,"size_category":"Very Large","avg_snowfall":null},{"resort_name":"Mt. Brighton, MI","state":"Michigan","summit":1331.0,"base":1100.0,"vertical":230.0,"lifts":18.0,"runs":26.0,"acres":130,"green_percent":0.3,"green_acres":39.0,"blue_percent":0.4,"blue_acres":52.0,"black_percent":0.3,"black_acres":39.0,"lat":42.53,"lon":-83.82,"size_category":"Medium","avg_snowfall":null},{"resort_name":"Mt. Crescent, IA","state":"Iowa","summit":1500.0,"base":1200.0,"vertical":300.0,"lifts":2.0,"runs":9.0,"acres":50,"green_percent":0.33,"green_acres":16.5,"blue_percent":0.34,"blue_acres":17.0,"black_percent":0.33,"black_acres":16.5,"lat":45.6,"lon":-107.45,"size_category":"Small","avg_snowfall":null},{"resort_name":"Mt. Holiday, MI","state":"Michigan","summit":null,"base":null,"vertical":200.0,"lifts":4.0,"runs":12.0,"acres":20,"green_percent":null,"green_acres":0.0,"blue_percent":null,"blue_acres":0.0,"black_percent":null,"black_acres":0.0,"lat":44.75,"lon":-85.53,"size_category":"Small","avg_snowfall":null},{"resort_name":"Mt. Holly, MI","state":"Michigan","summit":null,"base":null,"vertical":350.0,"lifts":14.0,"runs":18.0,"acres":100,"green_percent":0.22,"green_acres":22.0,"blue_percent":0.39,"blue_acres":39.0,"black_percent":0.39,"black_acres":39.0,"lat":42.82,"lon":-83.58,"size_category":"Medium","avg_snowfall":null},{"resort_name":"Mt. Hood Meadows, OR","state":"Oregon","summit":7300.0,"base":4523.0,"vertical":2777.0,"lifts":13.0,"runs":85.0,"acres":2150,"green_percent":0.15,"green_acres":322.5,"blue_percent":0.5,"blue_acres":1075.0,"black_percent":0.35,"black_acres":752.5,"lat":45.33,"lon":-121.66,"size_category":"Very Large","avg_snowfall":null},{"resort_name":"Mt. Hood Skibowl, OR","state":"Oregon","summit":5027.0,"base":3600.0,"vertical":1500.0,"lifts":9.0,"runs":65.0,"acres":960,"green_percent":0.2,"green_acres":192.0,"blue_percent":0.4,"blue_acres":384.0,"black_percent":0.4,"black_acres":384.0,"lat":45.37,"lon":-121.7,"size_category":"Very Large","avg_snowfall":null},{"resort_name":"Mt. La Crosse, WI","state":"Wisconsin","summit":1110.0,"base":594.0,"vertical":516.0,"lifts":4.0,"runs":18.0,"acres":100,"green_percent":0.3,"green_acres":30.0,"blue_percent":0.4,"blue_acres":40.0,"black_percent":0.3,"black_acres":30.0,"lat":43.79,"lon":-91.24,"size_category":"Medium","avg_snowfall":null},{"resort_name":"Mt. Lemmon, AZ","state":"Arizona ","summit":9150.0,"base":8200.0,"vertical":950.0,"lifts":3.0,"runs":21.0,"acres":200,"green_percent":0.2,"green_acres":40.0,"blue_percent":0.38,"blue_acres":76.0,"black_percent":0.42,"black_acres":84.0,"lat":32.45,"lon":-110.76,"size_category":"Large","avg_snowfall":null},{"resort_name":"Mt. Peter, NY","state":"New York","summit":1250.0,"base":750.0,"vertical":450.0,"lifts":4.0,"runs":14.0,"acres":60,"green_percent":0.33,"green_acres":19.8,"blue_percent":0.34,"blue_acres":20.4,"black_percent":0.33,"black_acres":19.8,"lat":41.23,"lon":-74.29,"size_category":"Small","avg_snowfall":null},{"resort_name":"Mt. Pisgah, NY","state":"New York","summit":2500.0,"base":2100.0,"vertical":400.0,"lifts":2.0,"runs":5.0,"acres":15,"green_percent":null,"green_acres":0.0,"blue_percent":0.8,"blue_acres":12.0,"black_percent":0.2,"black_acres":3.0,"lat":44.33,"lon":-74.14,"size_category":"Small","avg_snowfall":null},{"resort_name":"Mt. Rose Ski Tahoe, NV","state":"Nevada","summit":9700.0,"base":8260.0,"vertical":1800.0,"lifts":8.0,"runs":60.0,"acres":1200,"green_percent":0.2,"green_acres":240.0,"blue_percent":0.7,"blue_acres":840.0,"black_percent":0.1,"black_acres":120.0,"lat":38.81,"lon":-116.41,"size_category":"Very Large","avg_snowfall":null},{"resort_name":"Mt. Southington, CT ","state":"Connecticut","summit":525.0,"base":100.0,"vertical":425.0,"lifts":7.0,"runs":14.0,"acres":51,"green_percent":0.33,"green_acres":16.83,"blue_percent":0.42,"blue_acres":21.42,"black_percent":0.25,"black_acres":12.75,"lat":41.61,"lon":-72.94,"size_category":"Small","avg_snowfall":null},{"resort_name":"Mt. Spokane, WA","state":"Washington","summit":5889.0,"base":4200.0,"vertical":2000.0,"lifts":5.0,"runs":45.0,"acres":1425,"green_percent":0.23,"green_acres":327.75,"blue_percent":0.45,"blue_acres":641.25,"black_percent":0.32,"black_acres":456.0,"lat":47.93,"lon":-117.12,"size_category":"Very Large","avg_snowfall":null},{"resort_name":"Mt. Zion, MI","state":"Michigan","summit":1400.0,"base":1100.0,"vertical":300.0,"lifts":2.0,"runs":10.0,"acres":20,"green_percent":0.25,"green_acres":5.0,"blue_percent":0.5,"blue_acres":10.0,"black_percent":0.25,"black_acres":5.0,"lat":46.47,"lon":-90.16,"size_category":"Small","avg_snowfall":null},{"resort_name":"Mulligan's Hollow, MI","state":"Michigan","summit":1300.0,"base":870.0,"vertical":330.0,"lifts":5.0,"runs":6.0,"acres":7,"green_percent":0.5,"green_acres":3.5,"blue_percent":0.5,"blue_acres":3.5,"black_percent":null,"black_acres":0.0,"lat":43.06,"lon":-86.22,"size_category":"Small","avg_snowfall":null},{"resort_name":"Mystic Mountain, PA","state":"Pennsylvania","summit":2030.0,"base":1730.0,"vertical":300.0,"lifts":3.0,"runs":6.0,"acres":25,"green_percent":0.4,"green_acres":10.0,"blue_percent":0.35,"blue_acres":8.75,"black_percent":0.25,"black_acres":6.25,"lat":39.57,"lon":-79.19,"size_category":"Small","avg_snowfall":null},{"resort_name":"Nashoba Valley, MA","state":"Massachusetts ","summit":440.0,"base":200.0,"vertical":240.0,"lifts":9.0,"runs":17.0,"acres":59,"green_percent":0.2,"green_acres":11.8,"blue_percent":0.47,"blue_acres":27.73,"black_percent":0.33,"black_acres":19.47,"lat":42.48,"lon":-71.49,"size_category":"Small","avg_snowfall":null},{"resort_name":"New Hermon, ME","state":"Maine","summit":450.0,"base":100.0,"vertical":350.0,"lifts":3.0,"runs":18.0,"acres":75,"green_percent":0.4,"green_acres":30.0,"blue_percent":0.3,"blue_acres":22.5,"black_percent":0.3,"black_acres":22.5,"lat":44.44,"lon":-69.52,"size_category":"Medium","avg_snowfall":null},{"resort_name":"Nordic Mountain, WI","state":"Wisconsin","summit":1137.0,"base":872.0,"vertical":265.0,"lifts":6.0,"runs":16.0,"acres":60,"green_percent":0.15,"green_acres":9.0,"blue_percent":0.5,"blue_acres":30.0,"black_percent":0.35,"black_acres":21.0,"lat":45.19,"lon":-88.49,"size_category":"Small","avg_snowfall":null},{"resort_name":"Northstat, CA","state":"California","summit":8610.0,"base":6800.0,"vertical":1810.0,"lifts":20.0,"runs":17.0,"acres":3170,"green_percent":0.13,"green_acres":412.1,"blue_percent":0.6,"blue_acres":1902.0,"black_percent":0.27,"black_acres":855.9,"lat":38.58,"lon":-121.75,"size_category":"Very Large","avg_snowfall":null},{"resort_name":"Nubs Nob, MI","state":"Michigan","summit":1338.0,"base":911.0,"vertical":427.0,"lifts":11.0,"runs":53.0,"acres":248,"green_percent":0.31,"green_acres":76.88,"blue_percent":0.48,"blue_acres":119.04,"black_percent":0.21,"black_acres":52.08,"lat":45.47,"lon":-84.91,"size_category":"Large","avg_snowfall":null},{"resort_name":"Ober Gatlinburg, TN","state":"Tennessee","summit":3300.0,"base":2700.0,"vertical":600.0,"lifts":5.0,"runs":9.0,"acres":32,"green_percent":0.25,"green_acres":8.0,"blue_percent":0.5,"blue_acres":16.0,"black_percent":0.25,"black_acres":8.0,"lat":35.51,"lon":-86.59,"size_category":"Small","avg_snowfall":null},{"resort_name":"Okemo Mountain, VT","state":"Vermont","summit":3344.0,"base":1144.0,"vertical":2200.0,"lifts":19.0,"runs":119.0,"acres":632,"green_percent":0.32,"green_acres":202.24,"blue_percent":0.36,"blue_acres":227.52,"black_percent":0.32,"black_acres":202.24,"lat":43.41,"lon":-72.72,"size_category":"Large","avg_snowfall":null},{"resort_name":"Otis Ridge, MA","state":"Massachusetts ","summit":1700.0,"base":1300.0,"vertical":400.0,"lifts":5.0,"runs":11.0,"acres":60,"green_percent":0.3,"green_acres":18.0,"blue_percent":0.4,"blue_acres":24.0,"black_percent":0.3,"black_acres":18.0,"lat":42.2,"lon":-73.11,"size_category":"Small","avg_snowfall":null},{"resort_name":"Pajarito, NM","state":"New Mexico","summit":10440.0,"base":9000.0,"vertical":1200.0,"lifts":6.0,"runs":40.0,"acres":300,"green_percent":0.2,"green_acres":60.0,"blue_percent":0.5,"blue_acres":150.0,"black_percent":0.3,"black_acres":90.0,"lat":35.91,"lon":-106.14,"size_category":"Large","avg_snowfall":null},{"resort_name":"Park City Mt, UT","state":"Utah","summit":10000.0,"base":6800.0,"vertical":3200.0,"lifts":41.0,"runs":344.0,"acres":7300,"green_percent":0.09,"green_acres":657.0,"blue_percent":0.51,"blue_acres":3723.0,"black_percent":0.4,"black_acres":2920.0,"lat":40.68,"lon":-111.48,"size_category":"Very Large","avg_snowfall":null},{"resort_name":"Pats Peak, NH","state":"New Hampshire ","summit":1400.0,"base":690.0,"vertical":710.0,"lifts":10.0,"runs":23.0,"acres":90,"green_percent":0.5,"green_acres":45.0,"blue_percent":0.18,"blue_acres":16.2,"black_percent":0.32,"black_acres":28.8,"lat":43.2,"lon":-71.56,"size_category":"Medium","avg_snowfall":null},{"resort_name":"Pebble Creek, ID","state":"Idaho","summit":8560.0,"base":6300.0,"vertical":2200.0,"lifts":3.0,"runs":54.0,"acres":1100,"green_percent":0.12,"green_acres":132.0,"blue_percent":0.35,"blue_acres":385.0,"black_percent":0.53,"black_acres":583.0,"lat":42.74,"lon":-112.03,"size_category":"Very Large","avg_snowfall":null},{"resort_name":"Peek 'n Peak, NY","state":"New York","summit":1800.0,"base":1400.0,"vertical":400.0,"lifts":8.0,"runs":27.0,"acres":105,"green_percent":0.26,"green_acres":27.3,"blue_percent":0.52,"blue_acres":54.6,"black_percent":0.22,"black_acres":23.1,"lat":42.06,"lon":-79.74,"size_category":"Medium","avg_snowfall":null},{"resort_name":"Perfect North, IN","state":"Indiana","summit":800.0,"base":400.0,"vertical":400.0,"lifts":11.0,"runs":23.0,"acres":100,"green_percent":0.25,"green_acres":25.0,"blue_percent":0.5,"blue_acres":50.0,"black_percent":0.25,"black_acres":25.0,"lat":40.78,"lon":-89.62,"size_category":"Medium","avg_snowfall":null},{"resort_name":"Petoskey, MI","state":"Michigan","summit":null,"base":null,"vertical":200.0,"lifts":1.0,"runs":1.0,"acres":36,"green_percent":null,"green_acres":0.0,"blue_percent":1.0,"blue_acres":36.0,"black_percent":null,"black_acres":0.0,"lat":45.36,"lon":-84.95,"size_category":"Small","avg_snowfall":null},{"resort_name":"Pico Mountain, VT","state":"Vermont","summit":3967.0,"base":2000.0,"vertical":1967.0,"lifts":7.0,"runs":50.0,"acres":214,"green_percent":0.2,"green_acres":42.8,"blue_percent":0.48,"blue_acres":102.72,"black_percent":0.32,"black_acres":68.48,"lat":43.86,"lon":-72.88,"size_category":"Large","avg_snowfall":null},{"resort_name":"Pine Knob, MI","state":"Michigan","summit":1300.0,"base":1000.0,"vertical":300.0,"lifts":12.0,"runs":17.0,"acres":85,"green_percent":0.3,"green_acres":25.5,"blue_percent":0.35,"blue_acres":29.75,"black_percent":0.35,"black_acres":29.75,"lat":42.75,"lon":-83.38,"size_category":"Medium","avg_snowfall":null},{"resort_name":"Pine Mountain, MI","state":"Michigan","summit":1650.0,"base":1150.0,"vertical":500.0,"lifts":5.0,"runs":27.0,"acres":340,"green_percent":0.3,"green_acres":102.0,"blue_percent":0.4,"blue_acres":136.0,"black_percent":0.3,"black_acres":102.0,"lat":45.84,"lon":-88.09,"size_category":"Large","avg_snowfall":null},{"resort_name":"Plattekill Mountain","state":"New York","summit":3300.0,"base":2200.0,"vertical":1100.0,"lifts":4.0,"runs":38.0,"acres":75,"green_percent":0.2,"green_acres":15.0,"blue_percent":0.4,"blue_acres":30.0,"black_percent":0.4,"black_acres":30.0,"lat":42.27,"lon":-74.64,"size_category":"Medium","avg_snowfall":null},{"resort_name":"Pomerelle Mountain, ID","state":"Idaho","summit":9000.0,"base":8000.0,"vertical":1000.0,"lifts":3.0,"runs":24.0,"acres":500,"green_percent":0.35,"green_acres":175.0,"blue_percent":0.4,"blue_acres":200.0,"black_percent":0.25,"black_acres":125.0,"lat":42.32,"lon":-113.61,"size_category":"Large","avg_snowfall":null},{"resort_name":"Powder Mt, UT","state":"Utah","summit":9105.0,"base":6900.0,"vertical":2205.0,"lifts":7.0,"runs":135.0,"acres":2800,"green_percent":0.25,"green_acres":700.0,"blue_percent":0.4,"blue_acres":1120.0,"black_percent":0.35,"black_acres":980.0,"lat":40.15,"lon":-112.18,"size_category":"Very Large","avg_snowfall":null},{"resort_name":"Powder Ridge, MN","state":"Minnesota","summit":null,"base":null,"vertical":310.0,"lifts":6.0,"runs":15.0,"acres":60,"green_percent":0.4,"green_acres":24.0,"blue_percent":0.4,"blue_acres":24.0,"black_percent":0.2,"black_acres":12.0,"lat":45.33,"lon":-94.31,"size_category":"Small","avg_snowfall":null},{"resort_name":"Powderhorn, CO","state":"Colorado","summit":9850.0,"base":8200.0,"vertical":1650.0,"lifts":4.0,"runs":43.0,"acres":1600,"green_percent":0.2,"green_acres":320.0,"blue_percent":0.5,"blue_acres":800.0,"black_percent":0.3,"black_acres":480.0,"lat":38.28,"lon":-107.1,"size_category":"Very Large","avg_snowfall":null},{"resort_name":"Purgatory, CO","state":"Colorado","summit":10822.0,"base":8739.0,"vertical":2083.0,"lifts":10.0,"runs":85.0,"acres":1200,"green_percent":0.23,"green_acres":276.0,"blue_percent":0.51,"blue_acres":612.0,"black_percent":0.26,"black_acres":312.0,"lat":39.46,"lon":-106.08,"size_category":"Very Large","avg_snowfall":null},{"resort_name":"Ragged Mountain, NH","state":"New Hampshire ","summit":2250.0,"base":1000.0,"vertical":1250.0,"lifts":5.0,"runs":45.0,"acres":220,"green_percent":0.3,"green_acres":66.0,"blue_percent":0.4,"blue_acres":88.0,"black_percent":0.3,"black_acres":66.0,"lat":43.47,"lon":-71.83,"size_category":"Large","avg_snowfall":null},{"resort_name":"Red Lodge Mountain, MT","state":"Montana","summit":9416.0,"base":7016.0,"vertical":2400.0,"lifts":7.0,"runs":65.0,"acres":1565,"green_percent":0.17,"green_acres":266.05,"blue_percent":0.45,"blue_acres":704.25,"black_percent":0.38,"black_acres":594.7,"lat":45.16,"lon":-109.29,"size_category":"Very Large","avg_snowfall":null},{"resort_name":"Red River, NM","state":"New Mexico","summit":10350.0,"base":8750.0,"vertical":1600.0,"lifts":7.0,"runs":57.0,"acres":290,"green_percent":0.32,"green_acres":92.8,"blue_percent":0.38,"blue_acres":110.2,"black_percent":0.3,"black_acres":87.0,"lat":36.72,"lon":-105.41,"size_category":"Large","avg_snowfall":null},{"resort_name":"Roundtop, PA","state":"Pennsylvania","summit":1400.0,"base":800.0,"vertical":600.0,"lifts":10.0,"runs":16.0,"acres":100,"green_percent":0.38,"green_acres":38.0,"blue_percent":0.32,"blue_acres":32.0,"black_percent":0.3,"black_acres":30.0,"lat":41.34,"lon":-76.5,"size_category":"Medium","avg_snowfall":null},{"resort_name":"Royal Mountain, NY","state":"New York","summit":1800.0,"base":1250.0,"vertical":550.0,"lifts":3.0,"runs":13.0,"acres":30,"green_percent":0.33,"green_acres":9.9,"blue_percent":0.34,"blue_acres":10.2,"black_percent":0.33,"black_acres":9.9,"lat":43.04,"lon":-74.51,"size_category":"Small","avg_snowfall":null},{"resort_name":"Saddleback, ME","state":"Maine","summit":4120.0,"base":2460.0,"vertical":2000.0,"lifts":5.0,"runs":66.0,"acres":220,"green_percent":0.38,"green_acres":83.6,"blue_percent":0.29,"blue_acres":63.8,"black_percent":0.33,"black_acres":72.6,"lat":44.11,"lon":-68.54,"size_category":"Large","avg_snowfall":null},{"resort_name":"Sandia Peak, NM","state":"New Mexico","summit":10378.0,"base":8678.0,"vertical":1700.0,"lifts":6.0,"runs":30.0,"acres":200,"green_percent":0.35,"green_acres":70.0,"blue_percent":0.55,"blue_acres":110.0,"black_percent":0.1,"black_acres":20.0,"lat":35.21,"lon":-106.45,"size_category":"Large","avg_snowfall":null},{"resort_name":"Sapphire Valley, NC","state":"North Carolina","summit":3500.0,"base":3300.0,"vertical":200.0,"lifts":3.0,"runs":2.0,"acres":7,"green_percent":0.5,"green_acres":3.5,"blue_percent":0.5,"blue_acres":3.5,"black_percent":null,"black_acres":0.0,"lat":null,"lon":0.0,"size_category":"Small","avg_snowfall":null},{"resort_name":"Sawkill, NY","state":"New York","summit":null,"base":null,"vertical":70.0,"lifts":1.0,"runs":2.0,"acres":6,"green_percent":0.7,"green_acres":4.2,"blue_percent":0.3,"blue_acres":1.8,"black_percent":null,"black_acres":0.0,"lat":41.6,"lon":-74.18,"size_category":"Small","avg_snowfall":null},{"resort_name":"Schweitzer Mountain, ID","state":"Idaho","summit":6400.0,"base":4000.0,"vertical":2400.0,"lifts":9.0,"runs":92.0,"acres":2900,"green_percent":0.1,"green_acres":290.0,"blue_percent":0.4,"blue_acres":1160.0,"black_percent":0.5,"black_acres":1450.0,"lat":48.35,"lon":-116.59,"size_category":"Very Large","avg_snowfall":null},{"resort_name":"Seven Oaks, IA","state":"Iowa","summit":null,"base":null,"vertical":275.0,"lifts":4.0,"runs":11.0,"acres":30,"green_percent":0.4,"green_acres":12.0,"blue_percent":0.4,"blue_acres":12.0,"black_percent":0.2,"black_acres":6.0,"lat":41.46,"lon":-91.06,"size_category":"Small","avg_snowfall":null},{"resort_name":"Seven Springs, PA","state":"Pennsylvania","summit":2994.0,"base":2240.0,"vertical":750.0,"lifts":10.0,"runs":33.0,"acres":285,"green_percent":0.35,"green_acres":99.75,"blue_percent":0.4,"blue_acres":114.0,"black_percent":0.25,"black_acres":71.25,"lat":40.02,"lon":-79.29,"size_category":"Large","avg_snowfall":null},{"resort_name":"Shanty Creek , MI","state":"Michigan","summit":1125.0,"base":675.0,"vertical":450.0,"lifts":12.0,"runs":55.0,"acres":400,"green_percent":0.37,"green_acres":148.0,"blue_percent":0.3,"blue_acres":120.0,"black_percent":0.33,"black_acres":132.0,"lat":44.92,"lon":-85.18,"size_category":"Large","avg_snowfall":null},{"resort_name":"Shawnee Mountain, PA","state":"Pennsylvania","summit":1350.0,"base":650.0,"vertical":700.0,"lifts":12.0,"runs":23.0,"acres":125,"green_percent":0.25,"green_acres":31.25,"blue_percent":0.5,"blue_acres":62.5,"black_percent":0.25,"black_acres":31.25,"lat":41.03,"lon":-75.07,"size_category":"Medium","avg_snowfall":null},{"resort_name":"Shawnee Peak, ME","state":"Maine","summit":1700.0,"base":400.0,"vertical":1300.0,"lifts":5.0,"runs":40.0,"acres":249,"green_percent":0.25,"green_acres":62.25,"blue_percent":0.5,"blue_acres":124.5,"black_percent":0.25,"black_acres":62.25,"lat":44.06,"lon":-70.81,"size_category":"Large","avg_snowfall":null},{"resort_name":"Showdown Montana, MT","state":"Montana","summit":8200.0,"base":6800.0,"vertical":1400.0,"lifts":4.0,"runs":34.0,"acres":640,"green_percent":0.3,"green_acres":192.0,"blue_percent":0.4,"blue_acres":256.0,"black_percent":0.3,"black_acres":192.0,"lat":46.84,"lon":-110.69,"size_category":"Large","avg_snowfall":null},{"resort_name":"Sierra at Tahoe, CA","state":"California","summit":8852.0,"base":6640.0,"vertical":2212.0,"lifts":14.0,"runs":46.0,"acres":2000,"green_percent":0.25,"green_acres":500.0,"blue_percent":0.5,"blue_acres":1000.0,"black_percent":0.25,"black_acres":500.0,"lat":38.81,"lon":-120.07,"size_category":"Very Large","avg_snowfall":null},{"resort_name":"Silver Mountain, ID","state":"Idaho","summit":6300.0,"base":4100.0,"vertical":2200.0,"lifts":7.0,"runs":73.0,"acres":1600,"green_percent":0.2,"green_acres":320.0,"blue_percent":0.4,"blue_acres":640.0,"black_percent":0.4,"black_acres":640.0,"lat":48.96,"lon":-116.74,"size_category":"Very Large","avg_snowfall":null},{"resort_name":"Silverton, CO","state":"Colorado","summit":13487.0,"base":10400.0,"vertical":3087.0,"lifts":1.0,"runs":69.0,"acres":1819,"green_percent":0.0,"green_acres":0.0,"blue_percent":0.0,"blue_acres":0.0,"black_percent":1.0,"black_acres":1819.0,"lat":37.82,"lon":-107.66,"size_category":"Very Large","avg_snowfall":null},{"resort_name":"Sipapu, NM","state":"New Mexico","summit":9255.0,"base":8200.0,"vertical":1055.0,"lifts":5.0,"runs":41.0,"acres":200,"green_percent":0.2,"green_acres":40.0,"blue_percent":0.4,"blue_acres":80.0,"black_percent":0.4,"black_acres":80.0,"lat":36.15,"lon":-105.55,"size_category":"Large","avg_snowfall":null},{"resort_name":"Ski Apache, NM","state":"New Mexico","summit":12000.0,"base":10100.0,"vertical":1900.0,"lifts":11.0,"runs":55.0,"acres":750,"green_percent":0.2,"green_acres":150.0,"blue_percent":0.6,"blue_acres":450.0,"black_percent":0.2,"black_acres":150.0,"lat":33.4,"lon":-105.78,"size_category":"Very Large","avg_snowfall":null},{"resort_name":"Ski Bluewood, WA","state":"Washington","summit":5670.0,"base":4545.0,"vertical":1125.0,"lifts":3.0,"runs":24.0,"acres":430,"green_percent":0.27,"green_acres":116.1,"blue_percent":0.43,"blue_acres":184.9,"black_percent":0.3,"black_acres":129.0,"lat":47.75,"lon":-120.74,"size_category":"Large","avg_snowfall":null},{"resort_name":"Ski Bradford, MA","state":"Massachusetts ","summit":1548.0,"base":1300.0,"vertical":248.0,"lifts":10.0,"runs":15.0,"acres":48,"green_percent":0.1,"green_acres":4.8,"blue_percent":0.8,"blue_acres":38.4,"black_percent":0.1,"black_acres":4.8,"lat":42.76,"lon":-71.06,"size_category":"Small","avg_snowfall":null},{"resort_name":"Ski Brule, MI","state":"Michigan","summit":1861.0,"base":1361.0,"vertical":500.0,"lifts":11.0,"runs":17.0,"acres":150,"green_percent":0.2,"green_acres":30.0,"blue_percent":0.5,"blue_acres":75.0,"black_percent":0.3,"black_acres":45.0,"lat":44.32,"lon":-85.6,"size_category":"Medium","avg_snowfall":null},{"resort_name":"Ski Butternut, MA","state":"Massachusetts ","summit":1800.0,"base":800.0,"vertical":1000.0,"lifts":11.0,"runs":22.0,"acres":110,"green_percent":0.2,"green_acres":22.0,"blue_percent":0.6,"blue_acres":66.0,"black_percent":0.2,"black_acres":22.0,"lat":42.4,"lon":-71.39,"size_category":"Medium","avg_snowfall":null},{"resort_name":"Ski Cooper, CO","state":"Colorado","summit":11700.0,"base":10500.0,"vertical":1200.0,"lifts":5.0,"runs":26.0,"acres":400,"green_percent":0.3,"green_acres":120.0,"blue_percent":0.4,"blue_acres":160.0,"black_percent":0.3,"black_acres":120.0,"lat":39.36,"lon":-106.3,"size_category":"Large","avg_snowfall":null},{"resort_name":"Ski Denton, PA","state":"Pennsylvania","summit":2500.0,"base":1850.0,"vertical":650.0,"lifts":4.0,"runs":22.0,"acres":75,"green_percent":0.35,"green_acres":26.25,"blue_percent":0.35,"blue_acres":26.25,"black_percent":0.3,"black_acres":22.5,"lat":41.19,"lon":-77.21,"size_category":"Medium","avg_snowfall":null},{"resort_name":"Ski Granby, CO","state":"Colorado","summit":9202.0,"base":8202.0,"vertical":1000.0,"lifts":5.0,"runs":33.0,"acres":406,"green_percent":0.5,"green_acres":203.0,"blue_percent":0.3,"blue_acres":121.8,"black_percent":0.2,"black_acres":81.2,"lat":39.92,"lon":-105.79,"size_category":"Large","avg_snowfall":null},{"resort_name":"Ski Mystic, SD","state":"South Dakota","summit":6850.0,"base":6000.0,"vertical":850.0,"lifts":4.0,"runs":44.0,"acres":300,"green_percent":0.4,"green_acres":120.0,"blue_percent":0.4,"blue_acres":120.0,"black_percent":0.2,"black_acres":60.0,"lat":44.08,"lon":-103.63,"size_category":"Large","avg_snowfall":null},{"resort_name":"Ski Santa Fe, NM","state":"New Mexico","summit":12075.0,"base":10350.0,"vertical":1725.0,"lifts":7.0,"runs":74.0,"acres":660,"green_percent":0.2,"green_acres":132.0,"blue_percent":0.4,"blue_acres":264.0,"black_percent":0.4,"black_acres":264.0,"lat":35.72,"lon":-105.89,"size_category":"Very Large","avg_snowfall":null},{"resort_name":"Ski Sawmill, PA","state":"Pennsylvania","summit":2215.0,"base":1700.0,"vertical":515.0,"lifts":5.0,"runs":12.0,"acres":15,"green_percent":0.33,"green_acres":4.95,"blue_percent":0.34,"blue_acres":5.1,"black_percent":0.33,"black_acres":4.95,"lat":41.52,"lon":-77.29,"size_category":"Small","avg_snowfall":null},{"resort_name":"Ski Sundown, CT","state":"Connecticut","summit":1075.0,"base":450.0,"vertical":625.0,"lifts":5.0,"runs":15.0,"acres":65,"green_percent":0.5,"green_acres":32.5,"blue_percent":0.25,"blue_acres":16.25,"black_percent":0.25,"black_acres":16.25,"lat":41.6,"lon":-73.09,"size_category":"Small","avg_snowfall":null},{"resort_name":"Ski Ward, MA ","state":"Massachusetts ","summit":410.0,"base":200.0,"vertical":220.0,"lifts":6.0,"runs":9.0,"acres":45,"green_percent":0.3,"green_acres":13.5,"blue_percent":0.6,"blue_acres":27.0,"black_percent":0.1,"black_acres":4.5,"lat":42.4,"lon":-71.39,"size_category":"Small","avg_snowfall":null},{"resort_name":"Sleeping Giant, WY","state":"Wyoming","summit":7428.0,"base":6619.0,"vertical":810.0,"lifts":3.0,"runs":49.0,"acres":184,"green_percent":0.15,"green_acres":27.6,"blue_percent":0.41,"blue_acres":75.44,"black_percent":0.44,"black_acres":80.96,"lat":44.52,"lon":-109.84,"size_category":"Large","avg_snowfall":null},{"resort_name":"Smuggler's Notch, VT","state":"Vermont","summit":3640.0,"base":1030.0,"vertical":2610.0,"lifts":8.0,"runs":78.0,"acres":1000,"green_percent":0.19,"green_acres":190.0,"blue_percent":0.5,"blue_acres":500.0,"black_percent":0.31,"black_acres":310.0,"lat":44.55,"lon":-72.79,"size_category":"Very Large","avg_snowfall":null},{"resort_name":"Snow Creek, MO","state":"Missouri","summit":1100.0,"base":850.0,"vertical":300.0,"lifts":6.0,"runs":12.0,"acres":25,"green_percent":0.3,"green_acres":7.5,"blue_percent":0.6,"blue_acres":15.0,"black_percent":0.1,"black_acres":2.5,"lat":36.98,"lon":-90.36,"size_category":"Small","avg_snowfall":null},{"resort_name":"Snow King, WY","state":"Wyoming","summit":7808.0,"base":6237.0,"vertical":1571.0,"lifts":5.0,"runs":31.0,"acres":400,"green_percent":0.15,"green_acres":60.0,"blue_percent":0.25,"blue_acres":100.0,"black_percent":0.6,"black_acres":240.0,"lat":43.46,"lon":-110.76,"size_category":"Large","avg_snowfall":null},{"resort_name":"Snow Ridge, NY","state":"New York","summit":2000.0,"base":1350.0,"vertical":500.0,"lifts":6.0,"runs":22.0,"acres":130,"green_percent":0.2,"green_acres":26.0,"blue_percent":0.55,"blue_acres":71.5,"black_percent":0.25,"black_acres":32.5,"lat":42.03,"lon":-74.09,"size_category":"Medium","avg_snowfall":null},{"resort_name":"Snow Snake, MI","state":"Michigan","summit":1230.0,"base":1020.0,"vertical":210.0,"lifts":6.0,"runs":12.0,"acres":40,"green_percent":0.3,"green_acres":12.0,"blue_percent":0.5,"blue_acres":20.0,"black_percent":0.2,"black_acres":8.0,"lat":44.32,"lon":-85.6,"size_category":"Small","avg_snowfall":null},{"resort_name":"Snow Trails, OH","state":"Ohio","summit":1475.0,"base":1174.0,"vertical":300.0,"lifts":7.0,"runs":17.0,"acres":80,"green_percent":0.2,"green_acres":16.0,"blue_percent":0.6,"blue_acres":48.0,"black_percent":0.2,"black_acres":16.0,"lat":40.67,"lon":-82.51,"size_category":"Medium","avg_snowfall":null},{"resort_name":"Snowbasin MT, UT","state":"Utah","summit":9350.0,"base":6400.0,"vertical":2950.0,"lifts":10.0,"runs":113.0,"acres":3000,"green_percent":0.2,"green_acres":600.0,"blue_percent":0.5,"blue_acres":1500.0,"black_percent":0.3,"black_acres":900.0,"lat":39.32,"lon":-111.09,"size_category":"Very Large","avg_snowfall":null},{"resort_name":"Snowbird, UT","state":"Utah","summit":11000.0,"base":7600.0,"vertical":3400.0,"lifts":12.0,"runs":89.0,"acres":2500,"green_percent":0.27,"green_acres":675.0,"blue_percent":0.38,"blue_acres":950.0,"black_percent":0.35,"black_acres":875.0,"lat":40.58,"lon":-111.65,"size_category":"Very Large","avg_snowfall":null},{"resort_name":"Snowhaven, ID","state":"Idaho","summit":5600.0,"base":5200.0,"vertical":400.0,"lifts":2.0,"runs":9.0,"acres":40,"green_percent":0.75,"green_acres":30.0,"blue_percent":0.25,"blue_acres":10.0,"black_percent":0.0,"black_acres":0.0,"lat":45.87,"lon":-116.09,"size_category":"Small","avg_snowfall":null},{"resort_name":"Snowmass, CO","state":"Colorado","summit":12510.0,"base":8104.0,"vertical":4406.0,"lifts":21.0,"runs":91.0,"acres":3362,"green_percent":0.06,"green_acres":201.72,"blue_percent":0.5,"blue_acres":1681.0,"black_percent":0.44,"black_acres":1479.28,"lat":39.18,"lon":-106.94,"size_category":"Very Large","avg_snowfall":null},{"resort_name":"Snowshoe Mountain, WV","state":"West Virginia ","summit":4848.0,"base":3348.0,"vertical":1500.0,"lifts":15.0,"runs":60.0,"acres":230,"green_percent":0.42,"green_acres":96.6,"blue_percent":0.3,"blue_acres":69.0,"black_percent":0.28,"black_acres":64.4,"lat":38.61,"lon":-80.45,"size_category":"Large","avg_snowfall":null},{"resort_name":"Snowstar, IL","state":"Illinois","summit":790.0,"base":528.0,"vertical":262.0,"lifts":6.0,"runs":14.0,"acres":28,"green_percent":0.25,"green_acres":7.0,"blue_percent":0.5,"blue_acres":14.0,"black_percent":0.25,"black_acres":7.0,"lat":40.63,"lon":-89.39,"size_category":"Small","avg_snowfall":null},{"resort_name":"Snowy Range, WY","state":"Wyoming","summit":10000.0,"base":9000.0,"vertical":1000.0,"lifts":5.0,"runs":27.0,"acres":250,"green_percent":0.3,"green_acres":75.0,"blue_percent":0.4,"blue_acres":100.0,"black_percent":0.3,"black_acres":75.0,"lat":41.17,"lon":-106.24,"size_category":"Large","avg_snowfall":null},{"resort_name":"Soldier Mountain, ID","state":"Idaho","summit":7150.0,"base":5740.0,"vertical":1410.0,"lifts":3.0,"runs":36.0,"acres":1150,"green_percent":0.25,"green_acres":287.5,"blue_percent":0.6,"blue_acres":690.0,"black_percent":0.15,"black_acres":172.5,"lat":44.71,"lon":-115.09,"size_category":"Very Large","avg_snowfall":null},{"resort_name":"Solitude, UT","state":"Utah","summit":10035.0,"base":7988.0,"vertical":2047.0,"lifts":7.0,"runs":65.0,"acres":1200,"green_percent":0.2,"green_acres":240.0,"blue_percent":0.5,"blue_acres":600.0,"black_percent":0.3,"black_acres":360.0,"lat":40.63,"lon":-111.59,"size_category":"Very Large","avg_snowfall":null},{"resort_name":"Song Mountain, NY","state":"New York","summit":1940.0,"base":1240.0,"vertical":700.0,"lifts":5.0,"runs":24.0,"acres":100,"green_percent":0.58,"green_acres":58.0,"blue_percent":0.29,"blue_acres":29.0,"black_percent":0.13,"black_acres":13.0,"lat":42.78,"lon":-76.18,"size_category":"Medium","avg_snowfall":null},{"resort_name":"Spirit Mountain, MN","state":"Minnesota","summit":1320.0,"base":620.0,"vertical":700.0,"lifts":8.0,"runs":22.0,"acres":175,"green_percent":0.32,"green_acres":56.0,"blue_percent":0.32,"blue_acres":56.0,"black_percent":0.36,"black_acres":63.0,"lat":46.71,"lon":-92.23,"size_category":"Large","avg_snowfall":null},{"resort_name":"Spout Springs, OR","state":"Oregon","summit":5500.0,"base":4850.0,"vertical":635.0,"lifts":2.0,"runs":16.0,"acres":250,"green_percent":0.45,"green_acres":112.5,"blue_percent":0.35,"blue_acres":87.5,"black_percent":0.2,"black_acres":50.0,"lat":45.75,"lon":-118.05,"size_category":"Large","avg_snowfall":null},{"resort_name":"Spring Mountain, PA","state":"Pennsylvania","summit":528.0,"base":108.0,"vertical":420.0,"lifts":6.0,"runs":8.0,"acres":100,"green_percent":0.4,"green_acres":40.0,"blue_percent":0.4,"blue_acres":40.0,"black_percent":0.2,"black_acres":20.0,"lat":40.26,"lon":-75.45,"size_category":"Medium","avg_snowfall":null},{"resort_name":"Squaw Valley, CA","state":"California","summit":9050.0,"base":6200.0,"vertical":2850.0,"lifts":30.0,"runs":170.0,"acres":3600,"green_percent":0.25,"green_acres":900.0,"blue_percent":0.45,"blue_acres":1620.0,"black_percent":0.3,"black_acres":1080.0,"lat":36.74,"lon":-119.25,"size_category":"Very Large","avg_snowfall":null},{"resort_name":"Standing Rocks, WI","state":"Wisconsin","summit":null,"base":null,"vertical":125.0,"lifts":3.0,"runs":5.0,"acres":300,"green_percent":0.25,"green_acres":75.0,"blue_percent":0.5,"blue_acres":150.0,"black_percent":0.25,"black_acres":75.0,"lat":44.43,"lon":-89.41,"size_category":"Large","avg_snowfall":null},{"resort_name":"Steamboat, CO","state":"Colorado","summit":10568.0,"base":6900.0,"vertical":3668.0,"lifts":18.0,"runs":165.0,"acres":2965,"green_percent":0.14,"green_acres":415.1,"blue_percent":0.42,"blue_acres":1245.3,"black_percent":0.44,"black_acres":1304.6,"lat":40.8,"lon":-106.95,"size_category":"Very Large","avg_snowfall":null},{"resort_name":"Stevens Pass, WA","state":"Washington","summit":5845.0,"base":4601.0,"vertical":1800.0,"lifts":10.0,"runs":37.0,"acres":1125,"green_percent":0.11,"green_acres":123.75,"blue_percent":0.54,"blue_acres":607.5,"black_percent":0.35,"black_acres":393.75,"lat":47.75,"lon":-121.09,"size_category":"Very Large","avg_snowfall":null},{"resort_name":"Stowe Mountain, VT","state":"Vermont","summit":4395.0,"base":1280.0,"vertical":2160.0,"lifts":13.0,"runs":116.0,"acres":485,"green_percent":0.16,"green_acres":77.6,"blue_percent":0.59,"blue_acres":286.15,"black_percent":0.25,"black_acres":121.25,"lat":42.75,"lon":-72.74,"size_category":"Large","avg_snowfall":null},{"resort_name":"Stratton Mountain, VT","state":"Vermont","summit":3875.0,"base":1872.0,"vertical":2003.0,"lifts":11.0,"runs":95.0,"acres":625,"green_percent":0.41,"green_acres":256.25,"blue_percent":0.33,"blue_acres":206.25,"black_percent":0.26,"black_acres":162.5,"lat":43.12,"lon":-72.9,"size_category":"Large","avg_snowfall":null},{"resort_name":"Sugar Bowl, CA","state":"California","summit":8383.0,"base":6883.0,"vertical":1500.0,"lifts":13.0,"runs":103.0,"acres":1650,"green_percent":0.17,"green_acres":280.5,"blue_percent":0.45,"blue_acres":742.5,"black_percent":0.38,"black_acres":627.0,"lat":39.27,"lon":-120.3,"size_category":"Very Large","avg_snowfall":null},{"resort_name":"Sugar Mountain, NC","state":"North Carolina","summit":5300.0,"base":4100.0,"vertical":1200.0,"lifts":8.0,"runs":20.0,"acres":115,"green_percent":0.4,"green_acres":46.0,"blue_percent":0.4,"blue_acres":46.0,"black_percent":0.2,"black_acres":23.0,"lat":36.12,"lon":-81.86,"size_category":"Medium","avg_snowfall":null},{"resort_name":"Sugarbush, VT","state":"Vermont","summit":4083.0,"base":1483.0,"vertical":2600.0,"lifts":16.0,"runs":111.0,"acres":578,"green_percent":0.2,"green_acres":115.6,"blue_percent":0.45,"blue_acres":260.1,"black_percent":0.35,"black_acres":202.3,"lat":44.12,"lon":-72.83,"size_category":"Large","avg_snowfall":null},{"resort_name":"Sugarloaf, ME","state":"Maine","summit":4237.0,"base":1417.0,"vertical":2820.0,"lifts":15.0,"runs":145.0,"acres":1670,"green_percent":0.23,"green_acres":384.1,"blue_percent":0.33,"blue_acres":551.1,"black_percent":0.44,"black_acres":734.8,"lat":44.56,"lon":-70.43,"size_category":"Very Large","avg_snowfall":null},{"resort_name":"Suicide Six, VT","state":"Vermont","summit":1200.0,"base":550.0,"vertical":650.0,"lifts":3.0,"runs":23.0,"acres":100,"green_percent":0.3,"green_acres":30.0,"blue_percent":0.4,"blue_acres":40.0,"black_percent":0.3,"black_acres":30.0,"lat":44.57,"lon":-72.57,"size_category":"Medium","avg_snowfall":null},{"resort_name":"Summit, OR","state":"Oregon","summit":4300.0,"base":4000.0,"vertical":306.0,"lifts":2.0,"runs":6.0,"acres":70,"green_percent":0.75,"green_acres":52.5,"blue_percent":0.25,"blue_acres":17.5,"black_percent":0.0,"black_acres":0.0,"lat":44.63,"lon":-123.58,"size_category":"Small","avg_snowfall":null},{"resort_name":"Sun Valley, ID","state":"Idaho","summit":9150.0,"base":5750.0,"vertical":3400.0,"lifts":20.0,"runs":75.0,"acres":2054,"green_percent":0.36,"green_acres":739.44,"blue_percent":0.42,"blue_acres":862.68,"black_percent":0.22,"black_acres":451.88,"lat":43.69,"lon":-114.36,"size_category":"Very Large","avg_snowfall":null},{"resort_name":"Sunburst, WI","state":"Wisconsin","summit":1100.0,"base":866.0,"vertical":214.0,"lifts":9.0,"runs":10.0,"acres":35,"green_percent":0.2,"green_acres":7.0,"blue_percent":0.35,"blue_acres":12.25,"black_percent":0.45,"black_acres":15.75,"lat":43.18,"lon":-89.3,"size_category":"Small","avg_snowfall":null},{"resort_name":"Sundance, UT","state":"Utah","summit":8250.0,"base":6100.0,"vertical":2150.0,"lifts":5.0,"runs":42.0,"acres":450,"green_percent":0.2,"green_acres":90.0,"blue_percent":0.4,"blue_acres":180.0,"black_percent":0.4,"black_acres":180.0,"lat":40.41,"lon":-111.58,"size_category":"Large","avg_snowfall":null},